X.locale,Address.City,Address.County,Address.FormattedAddress,Address.IntersectionDescription,Address.Latitude,Address.Longitude,Address.Subdivision,LocationMilestones.OpenDate,Market,Name,Store.StoreDistrictID,Store.StoreGroupID
en-US,Oxford,Calhoun,"400 Oxford Exchange Blvd, Oxford, AL 36203-3459",SEC I-20 & Golden Creek Rd,33.608825,-85.783182,AL,2006-07-19T12:00:00,ESE,Oxford,340,394
en-US,Opelika,Lee,"2640 Enterprise Dr, Opelika, AL 36801-1511",NWC I-85 & Hwy 280,32.618108,-85.410636,AL,2005-07-20T12:00:00,ESE,Opelika,340,394
en-US,Carrollton,Carroll,"1129 S Park St, Carrollton, GA 30117-4429",NWC US 27 & Hwy 166 Bypass,33.55892,-85.076473,GA,1997-07-23T12:00:00,ESE,Carrollton,336,394
en-US,Newnan,Coweta,"555 Bullsboro Dr, Newnan, GA 30265-1045",SWC I-85 & Rte 34,33.392907,-84.758875,GA,1999-10-06T12:00:00,ESE,Newnan,336,394
en-US,Columbus,Muscogee,"1591 Bradley Park Dr, Columbus, GA 31904-3071",NEC Bradley Pk & JR Allen Pkwy,32.534649,-84.971073,GA,1999-03-03T12:00:00,ESE,Columbus,340,394
en-US,Peachtree City,Fayette,"1209 Peachtree Pkwy N, Peachtree City, GA 30269-1743",SEC Hwy 74 & Peachtree Pkwy,33.436865,-84.590146,GA,2006-07-19T12:00:00,ESE,Peachtree City,336,394
en-US,Montgomery,Montgomery,"2576 Berryhill Rd, Montgomery, AL 36117-3564",SEC I-85 & Taylor Rd,32.360305,-86.16067,AL,2003-10-08T12:00:00,ESE,Montgomery,340,394
en-US,Douglasville,Douglas,"2950 Chapel Hill Rd, Douglasville, GA 30135-1708",SEC Chapel Hill & Timber Ridge,33.726106,-84.735376,GA,1998-10-07T12:00:00,ESE,Douglasville,336,394
en-US,Prattville,Elmore,"2754 Legends Pkwy, Prattville, AL 36066-7748",SEC Hwy 82 & Cobbs Ford Rd,32.457557,-86.395508,AL,2007-07-25T12:00:00,ESE,Prattville,340,394
en-US,Birmingham,Shelby,"4616 Highway 280, Birmingham, AL 35242-5028",SWC US 280 & River Rd,33.42553,-86.711805,AL,2000-10-04T12:00:00,ESE,Birmingham 280 Corridor,340,394
en-US,Fayetteville,Fayette,"107 Pavilion Pkwy, Fayetteville, GA 30214-4098",NWC Pavilion Pkwy & State 85,33.481744,-84.438531,GA,1995-10-04T12:00:00,ESE,Fayetteville,336,394
en-US,Birmingham,Jefferson,"1654 Gadsden Hwy, Birmingham, AL 35235-3104",NEC Gadsden Hwy & Morris Spg Ln,33.60526,-86.636743,AL,2000-10-04T12:00:00,ESE,Trussville,340,394
en-US,Hiram,Paulding,"5220 Jimmy Lee Smith Pkwy, Hiram, GA 30141-2739",SEC US 278 & GA Rte 92,33.885814,-84.744219,GA,2002-03-06T12:00:00,ESE,Hiram,336,394
en-US,Alabaster,Shelby,"250 S Colonial Dr, Alabaster, AL 35007-4657",SEC I-65 & US Hwy 31,33.224895,-86.803977,AL,2007-07-25T12:00:00,ESE,Alabaster,340,394
en-US,East Point,Fulton,"3660 Marketplace Blvd, East Point, GA 30344-5738",NWC I-285 & Camp Creek Pkwy,33.659201,-84.499825,GA,2003-07-23T12:00:00,ESE,East Point,336,394
en-US,Homewood,Jefferson,"531 Brookwood Village, Homewood, AL 35209-4501",SEC Brookwood Blvd & Shades Creek Pkwy,33.467692,-86.774917,AL,2013-03-06T12:00:00,ESE,Homewood,340,394
en-US,Austell,Cobb,"4125 Austell Rd, Austell, GA 30106-1836",SEC Austell Rd & E-W Connector,33.852078,-84.602475,GA,1999-03-03T12:00:00,ESE,Austell,336,394
en-US,Birmingham,Jefferson,"5561 Grove Blvd, Birmingham, AL 35226-4600",NWC I-459 & John Hawkins Pkwy,33.361598,-86.852559,AL,2009-10-07T12:00:00,ESE,Hoover West,340,394
en-US,Marietta,Cobb,"2535 Dallas Hwy SW, Marietta, GA 30064-2543",SWC Rt 120 & Villa Rica Rd,33.944886,-84.626634,GA,1998-10-07T12:00:00,ESE,West Marietta,334,394
en-US,Fultondale,Jefferson,"3489 Lowery Pkwy, Fultondale, AL 35068-1677",SEC I-65 & Walker Chapel Rd,33.605595,-86.80623,AL,2007-10-10T12:00:00,ESE,Fultondale,340,394
en-US,Acworth,Cobb,"3378 Cobb Pkwy NW, Acworth, GA 30101-8304",NEC Cobb Pkwy & Mars Hill Rd,34.039709,-84.683783,GA,2006-07-19T12:00:00,ESE,Acworth,334,394
en-US,Mcdonough,Henry,"1850 Jonesboro Rd, Mcdonough, GA 30253-5960",NWC I-75 & Jonesboro Rd,33.46739,-84.216511,GA,2002-07-24T12:00:00,ESF,McDonough,346,394
en-US,Atlanta,Fulton,"375 18th St, Atlanta, GA 30363",NWC I-75/85 & 17th St,33.792608,-84.399931,GA,2007-10-10T12:00:00,ESF,Atlanta Midtown,336,394
en-US,Smyrna,Cobb,"2201 Cobb Pkwy SE, Smyrna, GA 30080-7633",SEC Cobb Pkwy & Windy Hill,33.897945,-84.479481,GA,1989-04-26T12:00:00,,Smyrna,334,394
en-US,Atlanta,Dekalb,"1275 Caroline St NE, Atlanta, GA 30307-2705",SEC Moreland Ave & Caroline St,33.757275,-84.346626,GA,2005-03-02T12:00:00,ESE,Atlanta Edgewood,336,394
en-US,Bessemer,Jefferson,"4889 Promenade Pkwy, Bessemer, AL 35022-7305",NEC I-459 & Eastern Valley Rd,33.334428,-86.990326,AL,2008-07-23T12:00:00,ESE,Bessemer,340,394
en-US,Kennesaw,Cobb,"740 Ernest W Barrett Pkwy NW, Kennesaw, GA 30144-6860",NWC I-75 & Ernest W Barrett,34.009047,-84.573229,GA,1995-07-19T12:00:00,ESE,Cobb,334,394
en-US,Atlanta,Fulton,"2539 Piedmont Rd NE, Atlanta, GA 30324-3006",SEC Piedmont Rd & Sidney Marcus Blvd,33.824116,-84.363145,GA,2006-10-04T12:00:00,ESE,Buckhead South,335,394
en-US,Cartersville,Bartow,"100 Cherokee Pl, Cartersville, GA 30121-2954",NEC US 441 & GA 113,34.172491,-84.785638,GA,1995-10-04T12:00:00,ESE,Cartersville,334,394
en-US,Atlanta,Fulton,"3535 Peachtree Rd NE, Atlanta, GA 30326-3287",SWC Peachtree Rd & Roxboro Rd,33.851828,-84.358821,GA,1999-07-21T12:00:00,ESE,Buckhead,335,394
en-US,Atlanta,Dekalb,"2400 N Druid Hills Rd NE, Atlanta, GA 30329-3211",NEC Druid Hills Rd & Briarcliff Rd,33.828247,-84.325478,GA,2002-10-09T12:00:00,ESE,North Druid Hills,335,394
en-US,Sandy Springs,Fulton,"5570 Roswell Rd, Sandy Springs, GA 30342-1102",SWC Roswell Rd & I-285,33.906136,-84.380141,GA,2008-10-08T12:00:00,ESE,Sandy Springs Prado,335,394
en-US,Marietta,Cobb,"1401 Johnson Ferry Rd, Marietta, GA 30062-6495",NWC Johnson Ferry Rd & Roswell Rd,33.985,-84.42961,GA,2007-10-10T12:00:00,ESE,Marietta East,334,394
en-US,Woodstock,Cherokee,"140 Woodstock Square Ave, Woodstock, GA 30189-6500",SWC State Rte 92 & I-575,34.085767,-84.545933,GA,2001-03-07T12:00:00,ESE,Woodstock,334,394
en-US,Marietta,Cobb,"3040 Shallowford Rd, Marietta, GA 30062-1252",SEC Shallowford & Sandy Plains,34.035208,-84.460926,GA,1997-10-08T12:00:00,ESE,Cobb NE,334,394
en-US,Atlanta,DeKalb,"100 Perimeter Center Pl, Atlanta, GA 30346-1204",NEC Perimeter Ctr & Crown Pt Pkwy,33.930503,-84.341325,GA,2005-10-05T12:00:00,ESF,Atlanta Perimeter,335,394
en-US,Tucker,DeKalb,"4241 Lavista Rd, Tucker, GA 30084-5310",SEC I-285 & La Vista Rd,33.845117,-84.245988,GA,2001-10-10T12:00:00,ESE,Northlake,346,394
en-US,Roswell,Fulton,"1135 Woodstock Rd, Roswell, GA 30075-2231",NWC Rte 92 & Hardscrabble Rd,34.063846,-84.398046,GA,2000-03-01T12:00:00,ESE,Roswell,334,394
en-US,Peachtree Corners,Gwinnett,"3200 Holcomb Bridge Rd, Peachtree Corners, GA 30092-3361",NEC Holcolm Rd & Peachtree Pkwy,33.951431,-84.232282,GA,1995-10-04T12:00:00,ESE,Peachtree Corners,335,394
en-US,Conyers,Rockdale,"2195 Hwy 20 SE, Conyers, GA 30013-2028",NWC Hwy 20 & Millers Chapel Rd,33.63339,-84.016216,GA,2006-10-04T12:00:00,ESE,Conyers,346,394
en-US,Alpharetta,Fulton,"6000 N Point Pkwy, Alpharetta, GA 30022-3006",SWC Haynes Bridge & N Point Pkwy,34.046252,-84.286994,GA,1995-07-19T12:00:00,ESE,Alpharetta,335,394
en-US,Canton,Cherokee,"2022 Cumming Hwy, Canton, GA 30115-8071",SEC I-575 & Cummings Hwy,34.234597,-84.456684,GA,2009-03-04T12:00:00,ESE,Canton,334,394
en-US,Duluth,Fulton,"5950 State Bridge Rd, Duluth, GA 30097-6438",SEC State Bridg & Medlock Brid,34.014619,-84.188354,GA,1995-10-04T12:00:00,ESE,Riverwood,335,394
en-US,Milton,Fulton,"13055 Highway 9 N, Milton, GA 30004-5137",NEC State Hwy 9 & Webb Rd,34.099447,-84.269227,GA,2008-07-23T12:00:00,ESE,Milton,334,394
en-US,Snellville,Gwinnett,"1905 Scenic Hwy N, Snellville, GA 30078-5633",NWC Ronald Reagan & Rt 124,33.874854,-84.015965,GA,1994-10-05T12:00:00,ESE,Snellville,346,394
en-US,Suwanee,Forsyth,"2625 Peachtree Pkwy, Suwanee, GA 30024-1048",SEC Brookwood Rd & Peachtree Pkwy,34.097081,-84.173188,GA,2005-10-05T12:00:00,ESE,John's Creek,335,394
en-US,Lawrenceville,Gwinnett,"875 Lawrenceville Suwanee Rd, Lawrenceville, GA 30043-8479",NWC Rt 120 & 317,33.970133,-84.014927,GA,1995-10-04T12:00:00,ESE,Lawrenceville,346,394
en-US,Cumming,Forsyth,"1525 Market Place Blvd, Cumming, GA 30041-7935",NEC GA 400 & GA 20,34.1857,-84.134116,GA,2002-03-06T12:00:00,ESE,Cumming,335,394
en-US,Buford,Gwinnett,"3205 Woodward Crossing Blvd, Buford, GA 30519-4938",NEC SR 20 & I-85,34.070031,-83.98182,GA,1999-10-06T12:00:00,ESE,Buford,346,394
en-US,Tuscaloosa,Tuscaloosa,"1901 13th Ave E, Tuscaloosa, AL 35404-4785",SEC McFarland Blvd & 15th St,33.193104,-87.518672,AL,2002-03-06T12:00:00,ESE,Tuscaloosa,340,394
en-US,Warner Robins,Houston,"2929 Watson Blvd, Warner Robins, GA 31093-9600",SWC Houston Lk Blvd & Watson Blvd,32.616594,-83.686391,GA,2001-10-10T12:00:00,ESE,Warner Robins,346,394
en-US,Bethlehem,Barrow,"916 Loganville Hwy, Bethlehem, GA 30620-2145",SEC US Hwy 29 & Hwy 81,33.942788,-83.752011,GA,2009-03-04T12:00:00,ESE,Winder,346,394
en-US,Flowery Branch,Hall,"5865 Spout Springs Rd, Flowery Branch, GA 30542-3448",NEC I-985 & Sprout Springs Rd,34.178722,-83.911284,GA,2008-03-05T12:00:00,ESE,Flowery Branch,335,394
en-US,Huntsville,Madison,"2750 Carl T Jones Dr SE, Huntsville, AL 35802-4914",NWC Bailey Cove Rd & Four Mile Post,34.673498,-86.541632,AL,2001-10-10T12:00:00,ESE,Huntsville South,369,394
en-US,Decatur,Morgan,"1235 Point Mallard Pkwy SE, Decatur, AL 35601-6531",SEC US Hwy 31 & Hwy 67,34.559064,-86.97103,AL,2007-10-10T12:00:00,ESE,Decatur,369,394
en-US,Gainesville,Hall,"514 Shallowford Rd NW, Gainesville, GA 30504-4154",SWC Skelton Rd & Shallowford,34.290556,-83.846503,GA,1997-07-23T12:00:00,ESE,Gainesville,335,394
en-US,Dothan,Houston,"4601 Montgomery Hwy, Dothan, AL 36303-1522",NWC US Hwy 231 & Murphy Mill Rd,31.266492,-85.446808,AL,2007-03-07T12:00:00,ESE,Dothan,348,393
en-US,Huntsville,Madison,"6275 University Dr NW, Huntsville, AL 35806-1776",SWC Hwy 72 & Enterprise Dr,34.741637,-86.681523,AL,2001-07-25T12:00:00,ESE,Huntsville West,369,394
en-US,Albany,Dougherty,"2721 Dawson Rd, Albany, GA 31707-1672",NEC Dawson Rd & N Westover B,31.621335,-84.224654,GA,1995-10-04T12:00:00,ESE,Albany,348,393
en-US,Madison,Madison,"8207 HIGHWAY 72 W, Madison, AL 35758-9571",,34.749313,-86.755874,AL,2012-03-07T12:00:00,ESE,Madison,369,394
en-US,Chattanooga,Hamilton,"1816 Gunbarrel Rd, Chattanooga, TN 37421-3129",SEC Gunbarrel Rd & Igou Gap Rd,35.024344,-85.156006,TN,2000-10-04T12:00:00,ESE,Chattanooga East,333,394
en-US,Athens,Clarke,"3065 Atlanta Hwy, Athens, GA 30606-3334",SWC BUS US 78 & Epps Bridge Rd,33.941502,-83.44039,GA,2003-10-08T12:00:00,ESE,Athens,346,394
en-US,Hixson,Hamilton,"5579 Highway 153, Hixson, TN 37343-3748",SWC Rt 153 & Winding Ln,35.14642,-85.251508,TN,2005-10-05T12:00:00,ESE,Chattanooga North,333,394
en-US,Cleveland,Bradley,"4570 Frontage Rd NW, Cleveland, TN 37312-2905",NWC I-75 & Paul Huff Parkway,35.217441,-84.866113,TN,2008-03-05T12:00:00,ESE,Cleveland,333,394
en-US,Florence,Lauderdale,"372 Cox Creek Pkwy, Florence, AL 35630-1540",SEC Cox Creek Pkwy & Gresham Rd,34.84213,-87.634764,AL,2001-03-07T12:00:00,ESE,Florence,369,394
en-US,Anderson,Anderson,"3519 Clemson Blvd, Anderson, SC 29621-1312",SWC Clemson & Civic Ctr Blvds,34.54954,-82.679501,SC,1999-07-21T12:00:00,ESE,Anderson,337,395
en-US,Tallahassee,Leon,"3700 Bradfordville Rd, Tallahassee, FL 32309-1943",NEC Thomasville & Bradfrdville,30.561288,-84.21554,FL,2005-07-20T12:00:00,SFL,Tallahassee North,348,393
en-US,Murfreesboro,Rutherford,"1851 Old Fort Pkwy, Murfreesboro, TN 37129-3364",SEC Rt 96 & Thompson Lane,35.843921,-86.426292,TN,1998-07-22T12:00:00,ESE,Murfreesboro,333,394
en-US,Destin,Okaloosa,"853 Harbor Blvd, Destin, FL 32541-2709",NEC Hwy 98 & Main St,30.390741,-86.480935,FL,2005-10-05T12:00:00,SFL,Destin,348,393
en-US,Pace,Santa Rosa,"4727 Highway 90, Pace, FL 32571-1403",SEC US 90 & Watkins Rd,30.601174,-87.126274,FL,2007-07-25T12:00:00,SFL,Pace,359,393
en-US,Spring Hill,Maury,"1033 Crossings Blvd, Spring Hill, TN 37174-2755",NEC US Hwy 31 & State Hwy 396,35.74154,-86.937825,TN,2008-03-05T12:00:00,ESE,Spring Hill,369,394
en-US,Mary Esther,Okaloosa,"250 E Miracle Strip Pkwy, Mary Esther, FL 32569-1924",NWC Mary Esther Cutoff & US 98,30.410554,-86.658874,FL,1995-10-04T12:00:00,SFL,Mary Esther,348,393
en-US,Evans,Columbia,"4223 Washington Rd, Evans, GA 30809-3069",NEC Washington Rd & Owens Rd,33.527174,-82.118653,GA,2005-10-05T12:00:00,ESE,Evans,337,395
en-US,Panama City Beach,Bay,"15555 Starfish St, Panama City Beach, FL 32413-2457",SWC US 98 & Powell Adams Rd,30.219781,-85.868686,FL,2006-10-04T12:00:00,SFL,Pier Park,348,393
en-US,Tallahassee,Leon,"2120 Apalachee Pkwy, Tallahassee, FL 32301-4819",NWC Apalachee & Paul Russell,30.43252,-84.244336,FL,1993-10-06T12:00:00,SFL,Tallahassee,348,393
en-US,Maryville,Blount,"800 Watkins Rd, Maryville, TN 37801-4597",NEC US 129 & US 321,35.751972,-83.991525,TN,2000-03-01T12:00:00,ESE,Maryville,351,395
en-US,Panama City,Bay,"2340 Highway 77, Panama City, FL 32405-4404",NEC 23rd St & Cove Blvd,30.19123,-85.649157,FL,1992-07-22T12:00:00,SFL,Panama City,348,393
en-US,Augusta,Richmond,"235 Robert C Daniel Jr Pkwy, Augusta, GA 30909-0800",NEC Wheeler Rd & I-520,33.489997,-82.081301,GA,1997-10-08T12:00:00,ESE,Augusta,337,395
en-US,Pensacola,Escambia,"1749 E Nine Mile Rd, Pensacola, FL 32514-5729",SWC University Pkwy & 9 Mile Rd,30.530082,-87.223828,FL,2000-07-19T12:00:00,BTC,Pensacola NE,359,393
en-US,Franklin,Williamson,"3064 Columbia Ave, Franklin, TN 37064-7424",NWC Columbia Ave & Mack Hatcher,35.89233,-86.880687,TN,2005-03-02T12:00:00,ESE,Franklin,369,394
en-US,Smyrna,Rutherford,"803 Industrial Blvd, Smyrna, TN 37167-6865",NEC I-24 & Sam Ridley Pkwy,35.979397,-86.571713,TN,2008-03-05T12:00:00,ESE,Smyrna,333,394
en-US,Valdosta,Lowndes,"1815 Norman Dr, Valdosta, GA 31601-3502",NEC Norman & St Augustine(.5 mi N),30.84359,-83.316461,GA,1995-10-04T12:00:00,BTC,Valdosta,348,393
en-US,Pensacola,Escambia,"4711 Bayou Blvd, Pensacola, FL 32503-2607",SWC Bayou Blvd & Askew Dr,30.468992,-87.208593,FL,1992-03-11T12:00:00,SFL,Pensacola,359,393
en-US,Knoxville,Knox,"1900 Town Center Blvd, Knoxville, TN 37922",NWC I-140 & S Northshore Dr,35.862042,-84.078239,TN,2012-07-25T12:00:00,ESE,Knoxville South,351,395
en-US,Knoxville,Knox,"11100 Parkside Dr, Knoxville, TN 37934-1960",SWC I-40/75 & Lovell Rd,35.900577,-84.151312,TN,2002-03-06T12:00:00,ESE,Farragut,351,395
en-US,Franklin,Williamson,"1701 Galleria Blvd, Franklin, TN 37067-1602",SWC Moores Lane & I-65,35.96564,-86.812455,TN,1992-03-11T12:00:00,ESE,Cool Springs,369,394
en-US,Knoxville,Knox,"8040 Ray Mears Blvd, Knoxville, TN 37919-5457",NEC Ray Mears Blvd & Winston Rd,35.922124,-84.047781,TN,1981-07-22T12:00:00,ESE,Knoxville West,351,395
en-US,Brentwood,Davidson,"780 Old Hickory Blvd, Brentwood, TN 37027-4527",NEC I-65 & Old Hickory Blvd,36.042772,-86.779214,TN,2005-07-20T12:00:00,ESE,Brentwood,369,394
en-US,Mount Juliet,Wilson,"401 S Mount Juliet Rd, Mount Juliet, TN 37122-6309",SEC I-40 & Mt Juliet Rd/Rt 171,36.168508,-86.508374,TN,2006-03-01T12:00:00,ESE,Mt Juliet,333,394
en-US,Pensacola,Escambia,"2950 S Blue Angel Pkwy, Pensacola, FL 32506-6905",NEC Blue Angel Pkwy & Sorrento Rd,30.363162,-87.358086,FL,2009-03-04T12:00:00,SFL,Pensacola West,359,393
en-US,Knoxville,Knox,"6670 Clinton Hwy, Knoxville, TN 37912-1016",NEC Clinton Hwy & Callahan,36.008464,-84.022171,TN,1996-03-06T12:00:00,ESE,Knoxville NW,351,395
en-US,Simpsonville,Greenville,"694 Fairview Rd, Simpsonville, SC 29680-6708",NEC Fairview Rd & Harrison Bridge,34.705739,-82.259611,SC,2004-03-03T12:00:00,ESE,Simpsonville,337,395
en-US,Nashville,Davidson,"3171 Lebanon Pike, Nashville, TN 37214-2314",NEC Jackson Downs & Lebanon Pk,36.182625,-86.637907,TN,1997-03-05T12:00:00,ESE,Nashville East,333,394
en-US,Nashville,Davidson,"26 White Bridge Rd, Nashville, TN 37205-1411",NWC White Bridge Pk & Post Rd,36.130779,-86.854673,TN,1981-07-22T12:00:00,ESE,White Bridge,369,394
en-US,Greenville,Greenville,"1112 Woodruff Rd, Greenville, SC 29607-4109",SWC I-85 & Woodruff Rd,34.830076,-82.308025,SC,1999-03-03T12:00:00,ESE,Greenville,337,395
en-US,Nashville,Davidson,"6814 Charlotte Pike, Nashville, TN 37209-4206",NEC I-40 & US Hwy 70,36.135103,-86.891363,TN,2007-03-07T12:00:00,BTC,Nashville West,369,394
en-US,Daphne,Baldwin,"1698 US Highway 98, Daphne, AL 36526-4252",SEC US 98 & Daphne Ave,30.603217,-87.896507,AL,2000-07-19T12:00:00,ESE,Daphne,359,393
en-US,Knoxville,Knox,"5405 Washington Pike, Knoxville, TN 37918-7004",SWC New Harvest Ln & Washington Pike,36.036859,-83.887806,TN,2006-07-19T12:00:00,ESE,Knoxville North,351,395
en-US,Aiken,Aiken,"2545 Whiskey Rd, Aiken, SC 29803-8521",NWC Whiskey Rd & Brookhaven Dr,33.504129,-81.711132,SC,2000-10-04T12:00:00,ESE,Aiken,337,395
en-US,Mobile,Mobile,"3150 Bel Air Mall, Mobile, AL 36606-3203",SEC I-65 & Airport Blvd,30.671392,-88.12001,AL,1996-07-24T12:00:00,ESE,Bel-Air,359,393
en-US,Taylors,Greenville,"6025 Wade Hampton Blvd, Taylors, SC 29687-5334",NEC Wade Hampton Blvd & Ruther Rd,34.93744,-82.279302,SC,2004-10-06T12:00:00,ESE,Greer,337,395
en-US,Madison,Davidson,"2050 Gallatin Rd N, Madison, TN 37115-2002",NWC Gallatin Pike & Conference Dr,36.304198,-86.694594,TN,1981-02-24T12:00:00,ESE,Rivergate,333,394
en-US,Hendersonville,Sumner,"1004 Andrews Run, Hendersonville, TN 37075-1232",NWC New Shackle Island Rd & Vietnam,36.334395,-86.625271,TN,2003-03-05T12:00:00,ESE,Hendersonville,333,394
en-US,Mobile,Mobile,"790 Schillinger Rd S, Mobile, AL 36695-8979",SWC Schillinger Rd & Old Gov't St,30.673882,-88.228304,AL,2002-03-06T12:00:00,ESE,Mobile West,359,393
en-US,Gulf Shores,Baldwin,"3820 Gulf Shores Pkwy, Gulf Shores, AL 36542-2819",NEC Hwy 59 & CR 4,30.303574,-87.680528,AL,2006-07-19T12:00:00,ESE,Gulf Shores,359,393
en-US,Arden,Buncombe,"15 McKenna Rd, Arden, NC 28704-9201",NEC I-26 & Airport Rd,35.448714,-82.535898,NC,2005-07-20T12:00:00,RG3,Asheville South,362,395
en-US,Spartanburg,Spartanburg,"8199 Warren H Abernathy Pkwy, Spartanburg, SC 29301-2452",SEC US 29 & Hadden Heights Rd,34.934124,-82.009115,SC,2001-07-25T12:00:00,ESE,Spartanburg,337,395
en-US,Asheville,Buncombe,"115 River Hills Rd, Asheville, NC 28805-2550",SWC S Tunnel Rd & SwannanoaRd,35.57295,-82.522312,NC,2003-07-23T12:00:00,RG3,Asheville,362,395
en-US,Jackson,Madison,"93 Stonebrook Pl, Jackson, TN 38305-3637",SWC Stonebrook Pl & US 45 Byp,35.686565,-88.857722,TN,1994-10-05T12:00:00,ESE,Jackson,332,394
en-US,Collierville,Shelby,"325 New Byhalia Rd, Collierville, TN 38017-3705",NWC New Byhalia Rd & Poplar Ave,35.050644,-89.690385,TN,2004-07-21T12:00:00,ESE,Collierville,332,394
en-US,Germantown,Shelby,"9235 Poplar Ave, Germantown, TN 38138-7903",SEC Hwy 72 & Forest Hill-Irene,35.065207,-89.755729,TN,1991-10-09T12:00:00,ESE,Germantown,332,394
en-US,Cordova,Shelby,"475 N Germantown Pkwy, Cordova, TN 38018-6209",SWC N Germantown Pkwy & Trinity Rd,35.138077,-89.798065,TN,2003-10-08T12:00:00,ESE,Cordova,332,394
en-US,Olive Branch,DeSoto,"5150 Goodman Rd, Olive Branch, MS 38654-7903",NEC Goodman Rd & Pleasant Hill Rd,34.964928,-89.898693,MS,2008-07-23T12:00:00,RG3,Olive Branch West,332,394
en-US,Memphis,Shelby,"7989 US Highway 64, Memphis, TN 38133-4007",SWC Hwy 64 & Germantown Rd,35.203464,-89.796608,TN,1996-07-24T12:00:00,ESE,Memphis NE,332,394
en-US,Memphis,Shelby,"5959 Poplar Ave, Memphis, TN 38119-3938",SEC I-240 & Poplar Ave,35.101357,-89.862978,TN,2009-03-04T12:00:00,ESE,Memphis East,332,394
en-US,Clarksville,Montgomery,"2823 Wilma Rudolph Blvd, Clarksville, TN 37040-5002",NEC Dunlop & US 79,36.586754,-87.292082,TN,1995-03-08T12:00:00,ESE,Clarksville,333,394
en-US,Memphis,Shelby,"601 Colonial Rd, Memphis, TN 38117-5132",SWC Colonial Rd & Poplar Ave,35.113176,-89.90362,TN,1980-07-29T12:00:00,ESE,Memphis Central,332,394
en-US,Horn Lake,DeSoto,"7255 Interstate Dr, Horn Lake, MS 38637-1410",NWC I-55 & Goodman Rd,34.965723,-90.00456,MS,1999-03-03T12:00:00,RG3,Horn Lake,332,394
en-US,Bowling Green,Warren,"160 American Ave, Bowling Green, KY 42104-6378",SWC Cambell Ln & US 231,36.949291,-86.43625,KY,1995-03-08T12:00:00,RG4,Bowling Green,333,394
en-US,Flowood,Rankin,"170 Promenade Blvd, Flowood, MS 39232-8017",NEC Old Fannin Rd & Hwy 25,32.343338,-90.060623,MS,2004-10-06T12:00:00,RG3,Flowood,331,393
en-US,Jackson,Hinds,"6365 I 55 N, Jackson, MS 39213-9742",SWC I-55 & East County Line Rd,32.39856,-90.147817,MS,1995-10-04T12:00:00,RG3,North Jackson,331,393
en-US,Jonesboro,Craighead,"3000 E Highland Dr, Jonesboro, AR 72401-6321",NEC E Highland Dr & US 49,35.822936,-90.666448,AR,2005-10-05T12:00:00,BTC,Jonesboro,167,194
en-US,Hattiesburg,Lamar,"6143 U S Highway 98, Hattiesburg, MS 39402-8533",NWC US 98 & Weathersby Dr N,31.323514,-89.385061,MS,2005-10-05T12:00:00,RG3,Hattiesburg,331,393
en-US,Owensboro,Daviess,"5151 Frederica St, Owensboro, KY 42301-7443",SEC US 431 & Southtown Blvd,37.717488,-87.122615,KY,1997-03-05T12:00:00,RG4,Owensboro,140,190
en-US,Elizabethtown,Hardin,"1631 Ring Rd, Elizabethtown, KY 42701-5470",SWC Ring Rd & Gloria Dei Dr,37.728429,-85.880339,KY,1996-03-06T12:00:00,RG4,Elizabethtown,168,190
en-US,D'iberville,Harrison,"3867 Promenade Pkwy, D'iberville, MS 39540-5363",NWC I-10 & I-110,30.454942,-88.899895,MS,2009-10-07T12:00:00,RG3,D'Iberville,359,393
en-US,Covington,St. Tammany Parish,"69320 Highway 21, Covington, LA 70433-7220",SEC LA Hwy 21 & I-12,30.442442,-90.14066,LA,2004-03-03T12:00:00,RG3,Covington,331,393
en-US,Hammond,Tangipahoa Parish,"2030 Hammond Square Dr, Hammond, LA 70403-6156",NWC I-12 & US Hwy 51/SW Railroad Ave,30.480532,-90.461589,LA,2009-07-22T12:00:00,RG3,Hammond,331,393
en-US,Monroe,Ouachita Parish,"4103 Pecanland Mall Dr, Monroe, LA 71203-7009",NWC I-20 & Pecanland Rd,32.499827,-92.070689,LA,2002-07-24T12:00:00,RG3,Monroe,353,392
en-US,Metairie,Jefferson Parish,"4500 Veterans Memorial Blvd, Metairie, LA 70006-5330",NEC I-10 & Clearview Pkwy,30.002898,-90.184112,LA,2002-07-24T12:00:00,RG3,Metairie,331,393
en-US,Kenner,Jefferson Parish,"1401 W Esplanade Ave, Kenner, LA 70065-2845",SEC W Esplande Ave & Cattle Farm Rd,30.017065,-90.247514,LA,2011-07-20T12:00:00,RG3,Kenner,331,393
en-US,Harvey,Jefferson Parish,"1731 Manhattan Blvd, Harvey, LA 70058-3409",SEC Manhattan Blvd & Gretna Blvd,29.889547,-90.053431,LA,2002-07-24T12:00:00,RG3,Harvey,331,393
en-US,Baton Rouge,East Baton Rouge Parish,"2001 Millerville Rd, Baton Rouge, LA 70816-1408",NEC I-12 & Millerville Rd,30.441249,-91.022367,LA,2005-10-05T12:00:00,RG3,Baton Rouge East,353,392
en-US,Baton Rouge,East Baton Rouge Parish,"6885 Siegen Ln, Baton Rouge, LA 70809-4528",SEC Siegen Ln & I-10,30.384458,-91.061331,LA,2001-10-10T12:00:00,RG3,Baton Rouge Siegen,353,392
en-US,Evansville,Vanderburgh,"6625 E Lloyd Expy, Evansville, IN 47715-2757",SEC Lloyd Exprwy & Burkhardt,37.975406,-87.470714,IN,2002-07-24T12:00:00,RG4,Evansville,140,190
en-US,Evansville,Vanderburgh,"4000 1st Ave, Evansville, IN 47710-3614",NWC 1st Ave & Buena Vista Rd,38.015727,-87.576467,IN,1980-09-06T12:00:00,RG4,Evansville North,140,190
en-US,Cape Girardeau,Cape Girardeau,"202 Siemers Dr, Cape Girardeau, MO 63701-8419",SWC I-55 & Missouri Rte K,37.299212,-89.580194,MO,1995-07-19T12:00:00,RG1,Cape Girardeau,117,194
en-US,Louisville,Jefferson,"7311 Jefferson Blvd, Louisville, KY 40219-6178",NEC SR 1065 & Jefferson Blvd,38.145684,-85.672642,KY,2003-07-23T12:00:00,RG4,Louisville Jefferson Pavilion,168,190
en-US,Marion,Williamson,"3000 W Deyoung St, Marion, IL 62959-5553",NWC Hwy 13 & Williamson Co Pkwy,37.749039,-88.979309,IL,1991-10-09T12:00:00,EMW,Marion,117,194
en-US,Louisville,Jefferson,"3600 Mall Rd, Louisville, KY 40218-5403",SWC Bardstown Rd & Bashford Manor,38.198329,-85.670463,KY,2002-10-09T12:00:00,RG4,Bashford Manor,168,190
en-US,Louisville,Jefferson,"4640 Taylorsville Rd, Louisville, KY 40220-3530",SWC Taylorsville & Hurstbourne,38.215374,-85.594476,KY,1996-03-06T12:00:00,RG4,Jeffersontown,168,190
en-US,Louisville,Jefferson,"4174 Westport Rd, Louisville, KY 40207-2735",SEC Thierman Ln & Westport Rd,38.258636,-85.642057,KY,2009-10-07T12:00:00,RG4,St Matthews,168,190
en-US,New Albany,Floyd,"2209 State St, New Albany, IN 47150-4924",SWC State St & Captain Frank Rd,38.305507,-85.841632,IN,1980-09-06T12:00:00,RG4,New Albany,168,190
en-US,Louisville,Jefferson,"12975 Shelbyville Rd, Louisville, KY 40243-2425",NEC State Hwy 60 & Aiken Rd,38.246049,-85.514987,KY,2009-10-07T12:00:00,RG4,Middletown,168,190
en-US,Clarksville,Clark,"1125 Veterans Pkwy, Clarksville, IN 47129-2664",NWC Veterans Pkwy & Broadway St,38.327641,-85.764438,IN,2005-10-05T12:00:00,RG4,Waterford Park,168,190
en-US,Louisville,Jefferson,"4101 Towne Center Dr, Louisville, KY 40241-4146",NWC Gene Synder Fwy & Westport,38.296935,-85.557122,KY,1997-07-23T12:00:00,RG4,Springhurst,168,190
en-US,Lexington,Fayette,"131 West Reynolds Rd, Lexington, KY 40503-3599",NWC Nicholasville & Reynolds Rd,37.992925,-84.526448,KY,1989-04-26T12:00:00,RG4,Lexington,168,190
en-US,Lexington,Fayette,"1940 Pavillon Way, Lexington, KY 40509-2210",NWC I-75 & Man O' War Blvd,38.022057,-84.415147,KY,1997-10-08T12:00:00,RG4,Lexington SE,168,190
en-US,Gainesville,Alachua,"3970 SW Archer Rd, Gainesville, FL 32608-2342",NEC SW Archer Rd & Hwy 75,29.621259,-82.383618,FL,1992-03-11T12:00:00,SFL,Gainesville,324,393
en-US,Gainesville,Alachua,"250 NW 13th St, Gainesville, FL 32601-5166",NWC W University Ave & SW 13th St,29.653539,-82.338389,FL,2017-11-08T12:00:00,,Gainesville University of FL,324,393
en-US,Houma,Terrebonne Parish,"1727 Martin Luther King Jr Blvd, Houma, LA 70360-2409",NWC MLK Blvd & Enterprise Rd,29.611226,-90.756986,LA,2002-07-24T12:00:00,RG3,Houma,331,393
en-US,Lafayette,Lafayette Parish,"3225 Louisiana Ave, Lafayette, LA 70501-1406",SWC I-10 & Louisiana Ave,30.265299,-91.995832,LA,2008-03-05T12:00:00,RG3,Lafayette N,353,392
en-US,Lafayette,Lafayette Parish,"4313 Ambassador Caffery Pkwy, Lafayette, LA 70508-6703",NWC Ambsdr Caffrey Pkwy & Kaliste,30.160103,-92.049102,LA,2002-10-09T12:00:00,RG3,Lafayette,353,392
en-US,Jacksonville,Duval,"9525 Crosshill Blvd, Jacksonville, FL 32222-5812",NWC Argyle Forest Blvd & Old Middleburg,30.199232,-81.824713,FL,2007-03-07T12:00:00,SFL,Jacksonville West,315,393
en-US,Brunswick,Glynn,"200 Glynn Isle, Brunswick, GA 31525-2929",NEC Altama Ave & Golden Isles Pkwy,31.200848,-81.480392,GA,2007-07-25T12:00:00,ESE,Brunswick,315,393
en-US,Jacksonville,Duval,"6331 Roosevelt Blvd, Jacksonville, FL 32244-3303",NEC US 17 & US Naval Air Station,30.234998,-81.695184,FL,2004-07-21T12:00:00,SFL,Ortega,315,393
en-US,Yulee,Nassau,"463737 State Rd 200, Yulee, FL 32097-8652",NWC State Hwy A1A & Chester Rd,30.630008,-81.553842,FL,2006-07-19T12:00:00,SFL,Yulee,315,393
en-US,Orange Park,Clay,"1490 County Rd 220, Orange Park, FL 32003-7927",NWC US 17 & Hwy 220,30.104009,-81.707476,FL,2002-10-09T12:00:00,SFL,Fleming Island,315,393
en-US,Jacksonville,Duval,"10490 San Jose Blvd, Jacksonville, FL 32257-6207",NWC San Jose Blvd & Hartley Rd,30.188558,-81.629169,FL,2000-10-04T12:00:00,SFL,Jacksonville Mandarin,315,393
en-US,Jacksonville,Duval,"444 Monument Rd, Jacksonville, FL 32225-6429",NWC Regency Sq & Monument Rd,30.328925,-81.548558,FL,1991-11-13T12:00:00,SFL,Regency,315,393
en-US,Jacksonville,Duval,"4567 River City Dr, Jacksonville, FL 32246-7411",NWC I-295 & J Turner Butler,30.260515,-81.525011,FL,2005-03-02T12:00:00,SFL,Jacksonville St Johns,315,393
en-US,Jacksonville,Duval,"9041 Southside Blvd, Jacksonville, FL 32256-5484",NEC Southside & Deercreek Club,30.193734,-81.549105,FL,1991-10-09T12:00:00,SFL,Southside,315,393
en-US,Ocala,Marion,"2000 SW College Rd, Ocala, FL 34471-3020",NEC College Rd & 17th St,29.173759,-82.156912,FL,1993-10-06T12:00:00,SFL,Ocala,324,393
en-US,Jacksonville,Duval,"13740 Beach Blvd, Jacksonville, FL 32224-1208",SEC Hodges Blvd & Beach Blvd,30.285361,-81.456998,FL,2007-03-07T12:00:00,SFL,Jacksonville East,315,393
en-US,Jacksonville Beach,Duval,"490 Marsh Landing Pkwy, Jacksonville Beach, FL 32250-5855",SWC SR A1A & Turner Butler,30.253951,-81.390833,FL,1995-07-19T12:00:00,SFL,Jacksonville Beach,315,393
en-US,Johnson City,Washington,"2116 N Roan St, Johnson City, TN 37601-2535",SEC N Roan & Broyles,36.342907,-82.373841,TN,1995-10-04T12:00:00,ESE,Johnson City,351,395
en-US,Kingsport,Sullivan,"2626 E Stone Dr, Kingsport, TN 37660-5848",NEC US 11 W & John B. Dennis Hwy,36.551845,-82.493877,TN,2007-10-10T12:00:00,ESE,Kingsport,351,395
en-US,Lexington,Lexington,"5119 Sunset Blvd, Lexington, SC 29072-9155",SEC Rte 378 & Hope Ferry Rd,34.006787,-81.193833,SC,2007-07-25T12:00:00,ESE,Lexington,337,395
en-US,Columbia,Lexington,"134 Harbison Blvd, Columbia, SC 29212-2204",SEC Harbison & St Andrews Rds,34.066744,-81.164761,SC,1999-07-21T12:00:00,ESE,Columbia NW,337,395
en-US,Savannah,Chatham,"14065 Abercorn St, Savannah, GA 31419-1964",NWC Middleground Rd & Rte 204,31.984042,-81.175146,GA,2004-10-06T12:00:00,ESE,Savannah,350,393
en-US,Savannah,Chatham,"1907 E Victory Dr, Savannah, GA 31404-3714",SEC Harry S. Truman Pkwy & Victory Dr,32.040926,-81.068312,GA,2007-10-10T12:00:00,ESE,Savannah East,350,393
en-US,Bluffton,Beaufort,"1050 Fording Island Rd, Bluffton, SC 29910-6500",SEC US 278 & S Carolina Hwy 46,32.255069,-80.850245,SC,2000-10-04T12:00:00,ESE,Hilton Head,350,393
en-US,Anchorage,Anchorage Borough,"150 W 100th Ave, Anchorage, AK 99515-2673","SEC W 100th Ave & ""C"" Street",61.129094,-149.881696,AK,2009-10-07T12:00:00,RG1,Anchorage South,262,298
en-US,Anchorage,Anchorage Borough,"1200 N Muldoon Rd, Anchorage, AK 99504-6103",NWC Muldoon Rd & Glen Hwy,61.226817,-149.745678,AK,2008-10-08T12:00:00,RG1,Anchorage NE,262,298
en-US,Wasilla,Matanuska-Susitna Borough,"1801 E Parks Hwy, Wasilla, AK 99654-7350",NEC E Parks Hwy & Palmer-Wasilla Hwy,61.578202,-149.404066,AK,2008-10-08T12:00:00,RG1,Wasilla,262,298
en-US,Bryant,Saline,"7377 Alcoa Rd, Bryant, AR 72022-6204",SEC I-30 & Alcoa Rd,34.604255,-92.530967,AR,2006-10-04T12:00:00,RG3,Bryant,167,194
en-US,Little Rock,Pulaski,"12700 Chenal Pkwy, Little Rock, AR 72211-3360",NWC Chenal Pkwy & Markham St,34.755508,-92.414374,AR,1998-03-04T12:00:00,RG3,Little Rock West,167,194
en-US,Little Rock,Pulaski,"420 S University Ave, Little Rock, AR 72205-5246",NWC I-630 & University Avenue,34.749789,-92.345077,AR,2010-10-06T12:00:00,RG3,Little Rock Univer,167,194
en-US,North Little Rock,Pulaski,"4000 McCain Blvd, North Little Rock, AR 72116-8039",SWC McCain Blvd & Hwy 67,34.788416,-92.228336,AR,1982-07-20T12:00:00,RG3,Little Rock North,167,194
en-US,Conway,Faulkner,"501 Elsinger Blvd, Conway, AR 72032-4717",SEC I-40 & Hwy 64 East,35.086431,-92.414034,AR,2004-07-21T12:00:00,RG3,Conway,167,194
en-US,Fort Smith,Sebastian,"4001 Phoenix Ave, Fort Smith, AR 72903-6099",NWC I-540 & Phoenix Ave,35.341003,-94.388125,AR,2008-10-08T12:00:00,RG3,Fort Smith,167,194
en-US,Texarkana,Bowie,"102 Richmond Ranch Rd, Texarkana, TX 75503-1081",NWC I-30 & Ricmond Rd,33.457924,-94.092134,TX,2003-07-23T12:00:00,RG3,Texarkana,302,391
en-US,Fayetteville,Washington,"3545 N Shiloh Dr, Fayetteville, AR 72703-5359",SEC Van Asche Dr & Steele Blvd,36.1157,-94.1555,AR,2002-07-24T12:00:00,RG3,Fayetteville,167,194
en-US,Branson,Taney,"1200 Branson Hills Pkwy, Branson, MO 65616-9943",NWC US 65 & Branson Hills Pkwy,36.673721,-93.225692,MO,2006-03-01T12:00:00,RG3,Branson,167,194
en-US,Rogers,Benton,"2404 Promenade Blvd, Rogers, AR 72758-9080",SEC I-540 & Perry Rd,36.299936,-94.173146,AR,2009-03-04T12:00:00,RG3,Rogers,167,194
en-US,Bossier City,Bossier Parish,"2735 Beene Blvd, Bossier City, LA 71111-5491",NEC I-220 & Airline Dr,32.559018,-93.707071,LA,2007-07-25T12:00:00,RG3,Bossier City,353,392
en-US,Shreveport,Caddo Parish,"7110 Youree Dr, Shreveport, LA 71105-5107",SWC E 70th St & Youree Dr,32.439556,-93.719634,LA,2001-07-25T12:00:00,RG3,Shreveport,353,392
en-US,Springfield,Greene,"1825 E Primrose St, Springfield, MO 65804-6497",NWC Primrose & Glenstone,37.15155,-93.262384,MO,1996-03-06T12:00:00,RG3,Springfield,167,194
en-US,Longview,Gregg,"3092 N Eastman Rd, Longview, TX 75605-5093",NEC Hawkins Pkwy & US Hwy 259,32.548638,-94.724801,TX,2007-10-10T12:00:00,RG3,Longview,302,391
en-US,Joplin,Jasper,"3151 E 7th St, Joplin, MO 64801-5581",NEC Range Line & 7th St,37.085188,-94.474158,MO,1995-10-04T12:00:00,RG3,Joplin,167,194
en-US,Broken Arrow,Tulsa,"1150 E Hillside Dr, Broken Arrow, OK 74012-2385",NEC State Hwy 51 & N 9th St,36.066905,-95.775939,OK,2009-03-04T12:00:00,RG3,Broken Arrow,129,194
en-US,Tulsa,Tulsa,"10711 E 71st St, Tulsa, OK 74133-2522",NEC US 169 & 71st St,36.062426,-95.856368,OK,2002-03-06T12:00:00,RG3,Tulsa SE,129,194
en-US,Tulsa,Tulsa,"10019 S Memorial Dr, Tulsa, OK 74133-6103",NEC US Hwy 64 & E 101st St,36.018796,-95.884218,OK,2009-10-07T12:00:00,RG3,Tulsa South,129,194
en-US,Tulsa,Tulsa,"1701 S Yale Ave, Tulsa, OK 74112-6221",NEC Yale Ave & 21st St,36.137272,-95.920397,OK,1970-04-09T12:00:00,RG3,Tulsa,129,194
en-US,Owasso,Tulsa,"9010 N 121st East Ave, Owasso, OK 74055-5358",SWC Hwy 169 & E 96th St,36.28964,-95.843956,OK,2005-10-05T12:00:00,RG3,Owasso,129,194
en-US,Tulsa,Tulsa,"7437 S Olympia Ave W, Tulsa, OK 74132-1838",SEC US Hwy 75 & E 71st St,36.055236,-96.001883,OK,2008-03-05T12:00:00,RG3,Tulsa Hills,129,194
en-US,Tyler,Smith,"7003 S Broadway Ave, Tyler, TX 75703-4737",SWC US 69 (Broadway) & S Town,32.273429,-95.309053,TX,1999-03-03T12:00:00,RG3,Tyler,302,391
en-US,Alexandria,Rapides Parish,"2206 Memorial Dr, Alexandria, LA 71301-3611",NEC Memorial Drive & Masonic Dr,31.280318,-92.458821,LA,1982-10-13T12:00:00,RG3,Alexandria,353,392
en-US,Sherman,Grayson,"4160 Town Center Rd, Sherman, TX 75092-2567",SWC US 75 & Loy Lake Rd,33.680506,-96.612217,TX,2004-03-03T12:00:00,RG3,Sherman,302,391
en-US,Osage Beach,Miller,"919 Highway D, Osage Beach, MO 65065-3169",NEC US 54 & SR 42,38.161805,-92.604264,MO,2004-07-21T12:00:00,RG1,Osage Beach,118,194
en-US,Midwest City,Oklahoma,"7305 SE 29th St, Midwest City, OK 73110-6122",NWC I-40 & Midwest Blvd,35.437104,-97.396634,OK,2005-10-05T12:00:00,RG3,Midwest City,301,391
en-US,Edmond,Oklahoma,"1200 E 2nd St, Edmond, OK 73034-5317",SWC 2nd St & Bryant Ave,35.650501,-97.463539,OK,2002-03-06T12:00:00,RG3,Edmond,301,391
en-US,Norman,Cleveland,"1400 24th Ave NW, Norman, OK 73069-6385",NEC I-35 & Robinson St,35.236043,-97.482709,OK,2006-10-04T12:00:00,RG3,Norman,301,391
en-US,Moore,Cleveland,"720 SW 19TH ST, Moore, OK 73160-2941",SWC SW 19th St & S. Telephone Rd,35.318058,-97.50025,OK,2011-07-20T12:00:00,RG3,Moore,301,391
en-US,Oklahoma City,Oklahoma,"13924 N Pennsylvania Ave, Oklahoma City, OK 73134-6021",NEC Penn Ave & Memorial Rd,35.612882,-97.547433,OK,2002-03-06T12:00:00,RG3,Quail Springs,301,391
en-US,Oklahoma City,Oklahoma,"5400 N May Ave, Oklahoma City, OK 73112-5407",NEC NW 50th & N May Ave,35.524408,-97.564417,OK,1972-06-01T12:00:00,RG3,Oklahoma City North,301,391
en-US,Oklahoma City,Oklahoma,"8315 N Rockwell Ave, Oklahoma City, OK 73132-4220",SWC Northwest Expy & Rockwell Ave,35.556031,-97.640095,OK,2003-10-08T12:00:00,RG3,Oklahoma City NW,301,391
en-US,Yukon,Canadian,"1700 Garth Brooks Blvd, Yukon, OK 73099-6387",SWC I-40 & Garth Brooks Blvd,35.481206,-97.763445,OK,2008-10-08T12:00:00,RG3,Yukon,301,391
en-US,Mckinney,Collin,"2025 N Central Expy, Mckinney, TX 75070-2911",NWC US 75 & US 380,33.220095,-96.638182,TX,2007-10-10T12:00:00,RG3,McKinney,302,391
en-US,Allen,Collin,"150 E Stacy Rd, Allen, TX 75002-8756",SEC US Hwy 75 & Stacy Rd,33.123517,-96.662084,TX,2009-03-04T12:00:00,RG3,Allen North,302,391
en-US,Allen,Collin,"907 W McDermott Dr, Allen, TX 75013-6503",SWC US 75 & McDermott Rd,33.099539,-96.681289,TX,1999-07-21T12:00:00,RG3,Allen,302,391
en-US,McKinney,Collin,"8900 State Highway 121, McKinney, TX 75070-2917",NEC Hwy 121 & FM 2478,33.129074,-96.731176,TX,2006-10-04T12:00:00,RG3,McKinney SW,326,391
en-US,Wylie,Collin,"3440 W FM 544, Wylie, TX 75098-9408",SEC FM 544 & McCreary Rd,33.009179,-96.593495,TX,2009-07-22T12:00:00,RG3,Wylie,302,391
en-US,Frisco,Denton,"4885 Eldorado Pkwy, Frisco, TX 75033-8662",SWC Eldorado Pkwy & North Dallas Tollway,33.173605,-96.844907,TX,2007-10-10T12:00:00,RG3,Frisco North,326,391
en-US,Derby,Sedgwick,"2024 N Rock Rd, Derby, KS 67037-3752",NEC Rock Rd & 71st St,37.568922,-97.241693,KS,2008-10-08T12:00:00,RG1,Derby,129,194
en-US,Rockwall,Rockwall,"850 Steger Towne Rd, Rockwall, TX 75032-5658",SEC I-30 & Rte 740,32.894097,-96.467985,TX,1997-07-23T12:00:00,RG3,Rockwall,302,391
en-US,Plano,Collin,"120 W Parker Rd, Plano, TX 75075-2331",SWC W Parker Rd & Hwy 75,33.037404,-96.70825,TX,1978-10-02T12:00:00,RG3,Plano,326,391
en-US,Frisco,Collin,"3201 Preston Rd, Frisco, TX 75034-9446",NWC Rte 121 & Preston Rd,33.104797,-96.811982,TX,2000-07-19T12:00:00,RG3,Frisco,326,391
en-US,Garland,Dallas,"5301 N Garland Ave, Garland, TX 75040-2716",SWC Rt 190 & N Garland Rd,32.965271,-96.646699,TX,2003-03-05T12:00:00,RG3,Garland East,302,391
en-US,Rowlett,Dallas,"4701 Lakeview Pkwy, Rowlett, TX 75088-4037",NWC State Hwy 66 & Liberty Grove,32.908541,-96.558085,TX,2007-07-25T12:00:00,RG3,Rowlett,302,391
en-US,Wichita,Sedgwick,"10800 E 21st St N, Wichita, KS 67206-3542",NWC Greenwich Rd & E 21st St,37.724216,-97.211489,KS,2004-10-06T12:00:00,RG1,Wichita NE,129,194
en-US,Plano,Collin,"2200 Dallas Pkwy, Plano, TX 75093-4300",NEC Dallas N Tollway & W Park Blvd,33.030336,-96.826952,TX,2000-07-19T12:00:00,RG3,Plano West,326,391
en-US,Richardson,Dallas,"601 S Plano Rd, Richardson, TX 75081-4512",SEC Plano Rd & Belt Line Rd,32.940404,-96.697299,TX,2002-10-09T12:00:00,RG3,Richardson Sq Mall,326,391
en-US,Dallas,Dallas,"16731 Coit Rd, Dallas, TX 75248-1750",NWC N Coit Rd & W Campbell Rd,32.983052,-96.769579,TX,2000-10-04T12:00:00,RG3,North Dallas Coit Road,326,391
en-US,Lewisville,Denton,"4760 State Highway 121, Lewisville, TX 75056-2913",SEC Hwy 121 & Josey Ln,33.064037,-96.885036,TX,2009-03-04T12:00:00,RG3,Lewisville,326,391
en-US,Denton,Denton,"1801 S Loop 288, Denton, TX 76205-4801",SWC Loop 288 & Brinker Rd,33.189952,-97.098768,TX,2006-10-04T12:00:00,RG3,Denton,321,391
en-US,Belton,Cass,"1106 E North Ave, Belton, MO 64012-5104",NWC Rt 58/North Ave & Mullen Rd,38.815772,-94.516304,MO,2003-03-05T12:00:00,RG1,Belton,123,194
en-US,Mesquite,Dallas,"1629 N Town East Blvd, Mesquite, TX 75150-4105",NEC E Emporium Circle & N Town E Blvd,32.813461,-96.621577,TX,2009-10-07T12:00:00,ESF,Mesquite,302,391
en-US,Dallas,Dallas,"13131 Montfort Dr, Dallas, TX 75240-5112",NWC LBJ Fwy & Montfort Dr,32.92778,-96.813082,TX,1969-08-15T12:00:00,RG3,North Dallas,352,391
en-US,Addison,Dallas,"3730 Belt Line Rd, Addison, TX 75001-4301",SEC Belt Line Rd & Marsh Lane,32.950951,-96.853854,TX,2003-10-08T12:00:00,RG3,Addison,326,391
en-US,Dallas,Dallas,"6419 Skillman St, Dallas, TX 75231-7109",NWC Skillman St & Abrams Rd,32.86569,-96.745008,TX,2001-03-07T12:00:00,RG3,Dallas NE,352,391
en-US,Lewisville,Denton,"725 Hebron Pkwy, Lewisville, TX 75057-5001",NEC I-35 & Hebron Pkwy,33.011846,-96.971203,TX,2002-03-06T12:00:00,RG3,Vista Ridge,326,391
en-US,Wichita,Sedgwick,"7575 Maple St, Wichita, KS 67209-2013",SWC Maple St & Ridge Rd,37.678223,-97.431146,KS,2004-10-06T12:00:00,RG1,Wichita Far West,129,194
en-US,Dallas,Dallas,"6464 E NORTHWEST HWY STE 212, Dallas, TX 75214-7802",SEC NW Hwy & Skillman Ave,32.856408,-96.752703,TX,1977-07-11T12:00:00,RG3,Medallion,352,391
en-US,Overland Park,Johnson,"8101 W 151st, Overland Park, KS 66223-2113",SWC US 69 & 151st St,38.853669,-94.681994,KS,2003-10-08T12:00:00,RG1,Overland Park South,144,194
en-US,Olathe,Johnson,"20255 W 154th St, Olathe, KS 66062-7055",SEC I-35 & 151st St.,38.848948,-94.819941,KS,2003-03-05T12:00:00,RG1,Olathe South,144,194
en-US,Flower Mound,Denton,"5959 Long Prairie Rd, Flower Mound, TX 75028-2224",NWC Dixon Ln & FM 2499,33.067892,-97.083271,TX,2003-03-05T12:00:00,RG3,Flower Mound,321,391
en-US,Kansas City,Jackson,"1201 W 136th St, Kansas City, MO 64145-1647",SEC State Line Rd & 135th St,38.880085,-94.60723,MO,2003-10-08T12:00:00,RG1,Stateline,123,194
en-US,Dallas,Dallas,"9440 Marsh Ln, Dallas, TX 75220-4924",NEC Northwest Hwy & Marsh,32.862745,-96.854439,TX,1994-10-05T12:00:00,RG3,Love Field,352,391
en-US,Wichita,Sedgwick,"2727 N Maize Rd, Wichita, KS 67205-7311",NWC Maize Rd & Central Park,37.732947,-97.464818,KS,2004-10-06T12:00:00,RG1,Wichita NW,129,194
en-US,Overland Park,Johnson,"12200 Blue Valley Pkwy, Overland Park, KS 66213-2639",SWC Metcalf & 123rd St,38.908199,-94.674659,KS,1997-10-08T12:00:00,RG1,Overland Park,144,194
en-US,Dallas,Dallas,"2417 N Haskell Ave, Dallas, TX 75204-3707",NEC US 75 & Lemmon,32.804355,-96.79138,TX,1993-10-06T12:00:00,RG3,Cityplace Market,352,391
en-US,Lees Summit,Jackson,"1850 NW Chipman Rd, Lees Summit, MO 64081-3938",NWC US 50 & Chipman Rd,38.931153,-94.40894,MO,2002-03-06T12:00:00,RG1,Lees Summit,123,194
en-US,Olathe,Johnson,"15345 W 119th St, Olathe, KS 66062-1074",SEC I-35 & 119th,38.910686,-94.764408,KS,1997-07-23T12:00:00,RG1,Olathe,144,194
en-US,Irving,Dallas,"7845 N Macarthur Blvd, Irving, TX 75063-7516",SWC I-635 & MacArthur Blvd,32.913092,-96.961901,TX,1998-10-07T12:00:00,RG3,Irving North,352,391
en-US,Overland Park,Johnson,"11501 W 97th St, Overland Park, KS 66214-2289",SEC Quivira Rd & 97th St,38.950386,-94.718861,KS,2005-10-05T12:00:00,RG1,Overland Park West,144,194
en-US,Jefferson City,Cole,"735 W Stadium Blvd, Jefferson City, MO 65109-4753",SEC Stadium & Missouri,38.579381,-92.21424,MO,1995-10-04T12:00:00,RG1,Jefferson City,118,194
en-US,Kansas City,Jackson,"8509 State Line Rd, Kansas City, MO 64114-2723",NWC Ward Pkwy & 89th St.,38.972472,-94.607118,MO,2002-10-09T12:00:00,RG1,Ward Parkway,144,194
en-US,Grapevine,Tarrant,"1101 Ira E Woods Ave, Grapevine, TX 76051-4020",SEC Hwy 26 & Hwy 114,32.930631,-97.089583,TX,1993-10-06T12:00:00,RG3,Grapevine,321,391
en-US,Irving,Dallas,"3333 W Airport Fwy, Irving, TX 75062-5921",NEC Airport Frwy & Belt Line,32.839199,-96.990952,TX,1987-02-18T12:00:00,RG3,Irving,352,391
en-US,Lawrence,Douglas,"3201 S Iowa St, Lawrence, KS 66046-5205",SWC US 59 & 33rd St,38.925538,-95.263513,KS,1995-10-04T12:00:00,RG1,Lawrence,144,194
en-US,Blue Springs,Jackson,"1040 NE CORONADO, Blue Springs, MO 64014-2971",SEC I-70 & NE Adams Dairy Pkwy,39.023798,-94.248863,MO,2009-10-07T12:00:00,RG1,Blue Springs,123,194
en-US,Mission,Johnson,"6100 Broadmoor St, Mission, KS 66202-3229",NEC Shawnee Mission Pkwy & Metcalf,39.01778,-94.665331,KS,2002-10-09T12:00:00,RG1,Mission,144,194
en-US,Shawnee,Johnson,"15700 Shawnee Mission Pkwy, Shawnee, KS 66217-9321",NWC Shawnee Mission & Lackman,39.01022,-94.768077,KS,1998-03-04T12:00:00,RG1,Shawnee,144,194
en-US,Euless,Tarrant,"1401 W Glade Rd, Euless, TX 76039-5417",SWC Rte 121 & Glade Rd,32.88088,-97.104442,TX,2001-10-10T12:00:00,RG3,Euless,321,391
en-US,Independence,Jackson,"17810 E 39th St S, Independence, MO 64055-3870",NWC 39th St & Bolger Rd,39.050723,-94.369265,MO,1999-07-21T12:00:00,RG1,Independence,123,194
en-US,North Richland Hills,Tarrant,"8532 Davis Blvd, North Richland Hills, TX 76182-8300",SWC Davis Blvd & Precinct Line Rd,32.908185,-97.187652,TX,2003-03-05T12:00:00,RG3,North Richland Hills,321,391
en-US,Dallas,Dallas,"39739 LBJ Fwy, Dallas, TX 75237-3560",NEC I-20 & Wheatland Rd,32.649886,-96.863018,TX,2008-03-05T12:00:00,RG3,Dallas South,306,391
en-US,Lawton,Comanche,"2030 NW 82nd Street, Lawton, OK 73505",SWC Quanah Parker Trailway & NW 82nd Str,34.629286,-98.494914,OK,2013-07-24T12:00:00,RG3,Lawton,301,391
en-US,Columbia,Boone,"2400 Bernadette Dr, Columbia, MO 65203-4616",NWC US 740 & Worley St,38.964359,-92.376963,MO,1986-07-23T12:00:00,RG1,Columbia,118,194
en-US,Washington,Franklin,"1851 Vernaci Dr, Washington, MO 63090-6174",SWC Hwy 100 & S Point Rd,38.536581,-90.982956,MO,2007-07-25T12:00:00,RG1,Washington,118,194
en-US,Kansas City,Clay,"4375 N Chouteau Trfy, Kansas City, MO 64117-1743",SEC I-35 & Chouteau Trafficway,39.173898,-94.533073,MO,2001-10-10T12:00:00,RG1,Kansas City Chouteau,123,194
en-US,Kansas City,Wyandotte,"10900 Stadium Pkwy, Kansas City, KS 66111-8100",SEC Parallel Pkwy & 110th St,39.127235,-94.831829,KS,2006-10-04T12:00:00,RG1,KC Speedway,123,194
en-US,Kansas City,Clay,"9220 NE Barry Rd, Kansas City, MO 64157-1209",NWC State Rte 152 & I-35,39.247376,-94.463373,MO,2002-07-24T12:00:00,RG1,Liberty,123,194
en-US,Kansas City,Clay,"8420 N Madison Ave, Kansas City, MO 64155-2777",NWC US 169 & Barry Rd,39.249007,-94.595171,MO,1999-03-03T12:00:00,RG1,Kansas City North,123,194
en-US,Kansas City,Platte,"9040 N Skyview Ave, Kansas City, MO 64154-8501",NEC I-29 & Rte 152,39.257692,-94.654643,MO,2008-07-23T12:00:00,RG1,Kansas City NW,123,194
en-US,Arnold,Jefferson,"3849 Vogel Rd, Arnold, MO 63010-6201",SWC I-55 & Vogel Road,38.412647,-90.396168,MO,2000-07-19T12:00:00,RG1,Arnold,117,194
en-US,Fenton,St. Louis,"197 Gravois Bluffs Plaza Dr, Fenton, MO 63026-4013",SWC Hwy 141 & Gravois Rd,38.502843,-90.446953,MO,2001-03-07T12:00:00,RG1,Fenton,117,194
en-US,Wentzville,St. Charles,"1883 Wentzville Pkwy, Wentzville, MO 63385-3896",NWC I-70 & Wentzville Pkwy,38.81917,-90.880355,MO,2007-10-10T12:00:00,RG1,Wentzville,118,194
en-US,Ballwin,St. Louis,"15025 Manchester Rd, Ballwin, MO 63011-4626",NWC Manchester & Holloway Rds,38.594512,-90.547463,MO,1971-08-14T12:00:00,ESF,Ballwin,117,194
en-US,Dardenne Prairie,St. Charles,"7955 Highway N, Dardenne Prairie, MO 63368-7382",NEC Henke Rd & SR N,38.768412,-90.768416,MO,2006-07-19T12:00:00,RG1,Dardenne Prairie,118,194
en-US,Chesterfield,St. Louis,"40 THF Blvd, Chesterfield, MO 63005-1150",SWC Chesterfield Arprt Rd & Baxter,38.666762,-90.58587,MO,2002-10-09T12:00:00,RG1,Chesterfield,118,194
en-US,Chesterfield,St. Louis,"1272 Town And Country Crossing Dr, Chesterfield, MO 63017-0605",SWC Clayton Rd & Woodsmill Rd,38.620739,-90.517369,MO,2008-07-23T12:00:00,RG1,Town And Country,118,194
en-US,O Fallon,St. Charles,"2300 Highway K, O Fallon, MO 63368-6661",SEC Hwy K & Laura Hill Rd,38.777548,-90.696666,MO,1999-10-06T12:00:00,RG1,O'Fallon,118,194
en-US,Saint Louis,St. Louis,"4250 Rusty Rd, Saint Louis, MO 63128-1973",SWC Lindbergh Blvd & I-55,38.50674,-90.339126,MO,2002-10-09T12:00:00,RG1,South County,117,194
en-US,Saint Peters,St. Charles,"6241 Mid Rivers Mall Dr, Saint Peters, MO 63304-1102",NWC Hwy 94 & Mid Rivers Mall Dr,38.739289,-90.636292,MO,1996-10-02T12:00:00,RG1,St Peters,118,194
en-US,Kirkwood,St. Louis,"1042 S Kirkwood Rd, Kirkwood, MO 63122-7200",SEC Big Bend Rd & Kirkwood Rd,38.564709,-90.404735,MO,2000-07-19T12:00:00,RG1,Kirkwood,117,194
en-US,Saint Charles,St. Charles,"3881 Mexico Rd, Saint Charles, MO 63303-3042",SEC Muegge Rd & Mexico Rd,38.787647,-90.562835,MO,2000-07-19T12:00:00,RG1,St Charles,118,194
en-US,Brentwood,St. Louis,"25 Brentwood Promenade Ct, Brentwood, MO 63144-1428",SEC US 40 & Brentwood Blvd,38.627584,-90.342867,MO,1998-03-04T12:00:00,RG1,Brentwood,118,194
en-US,Saint Louis,St. Louis,"4255 Hampton Ave, Saint Louis, MO 63109-2120",SWC Chippewa St & Hampton Ave,38.592356,-90.295172,MO,2005-10-05T12:00:00,RG1,Hampton Village,117,194
en-US,Topeka,Shawnee,"2120 SW Wanamaker Rd, Topeka, KS 66614-5231",SEC Wanamaker Rd & 21st St,39.028217,-95.759668,KS,1989-02-15T12:00:00,RG1,Topeka,144,194
en-US,Bridgeton,St. Louis,"12275 St Charles Rock Rd, Bridgeton, MO 63044-2502",NEC St Charles Rock Rd & Natural Brd,38.754066,-90.426423,MO,1969-02-17T12:00:00,ESF,Bridgeton,117,194
en-US,Belleville,St. Clair,"5601 Belleville Crossing St, Belleville, IL 62226-3104",NEC Hwy 15 & Frank Scott Pkwy West,38.526186,-90.032675,IL,2007-10-10T12:00:00,EMW,Belleville,117,194
en-US,Florissant,St. Louis,"2341 N Highway 67, Florissant, MO 63033-2033",NEC Thunderbird & US 67,38.805361,-90.310749,MO,1997-10-08T12:00:00,RG1,Florissant,117,194
en-US,Fairview Heights,St. Clair,"4701 N Illinois St, Fairview Heights, IL 62208-3416",NWC Hwy 159 & Frank Scott Pkwy,38.572074,-89.986828,IL,2008-07-23T12:00:00,EMW,Fairview Heights,117,194
en-US,Shiloh,St. Clair,"3400 Green Mountcrossing Dr, Shiloh, IL 62269-7277",SEC I-64 & Green Mount Rd,38.572678,-89.923981,IL,2003-03-05T12:00:00,EMW,Shiloh,117,194
en-US,Lufkin,Angelina,"4200 S Medford Dr, Lufkin, TX 75901-5644",NEC Hwy 287 & Tulane Dr,31.313434,-94.720071,TX,1995-03-08T12:00:00,RG3,Lufkin,304,392
en-US,Cedar Hill,Dallas,"739 N Highway 67, Cedar Hill, TX 75104-2142",SWC US 67 & Pleasant Run Rd,32.603229,-96.936694,TX,2003-10-08T12:00:00,RG3,Cedar Hill,306,391
en-US,Waxahachie,Ellis,"1316 N Highway 77, Waxahachie, TX 75165-5116",NEC Hwy 77 & US Hwy 287,32.422123,-96.837576,TX,2005-03-02T12:00:00,RG3,Waxahachie,306,391
en-US,Grand Prairie,Dallas,"554 W Interstate 20, Grand Prairie, TX 75052-6932",NWC I-20 & Carrier Pkwy,32.677827,-97.009642,TX,1998-03-04T12:00:00,RG3,Grand Prairie,306,391
en-US,Grand Prairie,Tarrant,"5270 S State Highway 360, Grand Prairie, TX 75052-8307",SEC State Hwy 360 & Camp Wisdom Rd,32.642824,-97.060569,TX,2007-03-07T12:00:00,ESF,Grand Prairie S,306,391
en-US,Hurst,Tarrant,"1400 Precinct Line Rd, Hurst, TX 76053-3828",NEC Precinct Ln & Bedford Euless,32.836666,-97.183981,TX,2000-07-19T12:00:00,RG3,Hurst,321,391
en-US,Fort Worth,Tarrant,"8550 East Fwy, Fort Worth, TX 76120-4414",SWC I-30 & Eastchase Pkwy,32.758276,-97.170162,TX,1995-10-04T12:00:00,RG3,Eastchase,321,391
en-US,Arlington,Tarrant,"1600 W Arbrook Blvd, Arlington, TX 76015-4107",SWC Cooper St & Arbrook Blvd,32.684103,-97.135958,TX,2001-07-25T12:00:00,ESF,Arlington South,306,391
en-US,Watauga,Tarrant,"8000 Denton Hwy, Watauga, TX 76148-2464",SEC US 377 & Bursey Rd,32.889784,-97.25691,TX,2000-07-19T12:00:00,RG3,Watauga,342,391
en-US,Mansfield,Tarrant,"1801 Highway 287 N, Mansfield, TX 76063-7533",SWC US 287 & Debbie Lane,32.589965,-97.144408,TX,2003-07-23T12:00:00,RG3,Mansfield,306,391
en-US,Fort Worth,Tarrant,"8917 Tehama Ridge Pkwy, Fort Worth, TX 76177-2005",NEC of I-35W and North Tarrant Pkwy,32.90212,-97.32478,TX,2015-10-07T12:00:00,,Fort Worth,342,391
en-US,Fort Worth,Tarrant,"301 Carroll St, Fort Worth, TX 76107-1956",NEC 7th St & Carroll St,32.755476,-97.354078,TX,2005-10-05T12:00:00,RG3,Fort Worth Central,342,391
en-US,Lake Worth,Tarrant,"6604 Lake Worth Blvd, Lake Worth, TX 76135-3000",NWC Hwy 199 & NW Centre Dr,32.814128,-97.429322,TX,2005-07-20T12:00:00,RG3,Lake Worth,342,391
en-US,Fort Worth,Tarrant,"751 Alta Mere Dr, Fort Worth, TX 76116-1526",NEC Hwy 183 & Green Oaks Rd,32.74899,-97.432039,TX,2008-07-23T12:00:00,RG3,Ridgmar,342,391
en-US,Fort Worth,Tarrant,"5700 Overton Ridge Blvd, Fort Worth, TX 76132-3220",NEC Bryant Irvin & Overton Rdg,32.678625,-97.412599,TX,2000-10-04T12:00:00,RG3,Cityview,342,391
en-US,Burleson,Johnson,"200 NW John Jones Dr, Burleson, TX 76028-5615",NWC FM 731 ext & Hwy 174,32.523504,-97.349245,TX,2004-10-06T12:00:00,RG3,Burleson,342,391
en-US,Weatherford,Parker,"122 E Interstate 20, Weatherford, TX 76087-8556",SEC I-20 & Hwy 171/S Main St,32.727421,-97.78406,TX,2005-07-20T12:00:00,RG3,Weatherford,342,391
en-US,Huntsville,Walker,"259 Interstate 45 S, Huntsville, TX 77340-4903",NWC I-45 & Smither Dr,30.70689,-95.566244,TX,2009-07-22T12:00:00,RG3,Huntsville,304,392
en-US,Waco,McLennan,"5401 Bosque Blvd, Waco, TX 76710-4442",NWC Bosque Blvd & Wooded Acres Dr,31.534892,-97.192432,TX,2003-03-05T12:00:00,RG3,Waco,306,391
en-US,Bryan,Brazos,"3061 Wildflower Dr, Bryan, TX 77802-3060",SEC Hwy 6 Bypass & Briarcrest Dr,30.664818,-96.32209,TX,2008-07-23T12:00:00,RG3,Bryan,304,392
en-US,Conroe,Montgomery,"503 I 45 N, Conroe, TX 77304-2331",SWC I-45 & Rte 105,30.314314,-95.473853,TX,1998-03-04T12:00:00,RG3,Conroe,304,392
en-US,Beaumont,Jefferson,"5850 Eastex Fwy, Beaumont, TX 77708-4824",NEC Hwy 69/96 & Dowlen Rd,30.126002,-94.15271,TX,1982-02-24T12:00:00,RG3,Beaumont,303,392
en-US,Lake Charles,Calcasieu Parish,"1720 W Prien Lake Rd, Lake Charles, LA 70601-8361",NEC Nelson Rd & Prien Lake Rd,30.199843,-93.245921,LA,2002-03-06T12:00:00,RG3,Lake Charles,353,392
en-US,College Station,Brazos,"2100 Texas Ave S, College Station, TX 77840-3918",SWC Texas Ave & Holleman Dr,30.610755,-96.315122,TX,1992-07-22T12:00:00,RG3,College Station,304,392
en-US,Edwardsville,Madison,"2350 Troy Rd, Edwardsville, IL 62025-2584",NEC Hwy 159 & Goshen Rd,38.78342,-89.949043,IL,1996-03-06T12:00:00,EMW,Edwardsville,147,194
en-US,Alton,Madison,"300 Homer M Adams Pkwy, Alton, IL 62002-5928",NEC Homer Adams Pkwy & Alby Rd,38.921281,-90.169937,IL,1979-10-29T12:00:00,EMW,Alton,147,194
en-US,Wichita Falls,Wichita,"4317 Kemp Blvd, Wichita Falls, TX 76308-3717",SEC Kemp Blvd & Elliot St,33.864791,-98.533874,TX,1980-02-04T12:00:00,RG3,Wichita Falls,326,391
en-US,Port Arthur,Jefferson,"3100 Highway 365 Ste 90, Port Arthur, TX 77642-7796",SEC US 69 & TX Hwy 365,29.945702,-93.988995,TX,2004-03-03T12:00:00,RG3,Port Arthur,303,392
en-US,Magnolia,Montgomery,"32858 FM 2978 Rd, Magnolia, TX 77354-6073",SEC FM 1488 & FM 2978,30.216879,-95.565289,TX,2008-03-05T12:00:00,RG3,Westwood Village,304,392
en-US,The Woodlands,Montgomery,"1100 Lake Woodlands Dr, The Woodlands, TX 77380-3221",NWC Lake Woodlands Dr & I-45,30.169394,-95.45353,TX,1991-10-09T12:00:00,RG3,Woodlands,304,392
en-US,Humble,Harris,"6931 FM 1960 Rd E, Humble, TX 77346-2705",NWC FM 1960 & W Lake Houston Pkwy,30.000453,-95.172219,TX,2008-07-23T12:00:00,RG3,Atascocita,304,392
en-US,Humble,Harris,"20777 Hwy 59 N, Humble, TX 77338-2209",SWC Townsen Blvd & US 59,30.019506,-95.268162,TX,2002-10-09T12:00:00,RG3,Humble,304,392
en-US,Spring,Harris,"6635 N Grand Pkwy W, Spring, TX 77389",SEC SEC Grand Parkway and Kuykendahl,30.087472,-95.52035,TX,2017-03-08T12:00:00,,Spring,304,392
en-US,Spring,Harris,"19511 I H 45, Spring, TX 77388-6015",SWC Cypresswood Dr & I-45,30.050394,-95.434319,TX,2002-10-09T12:00:00,RG3,Houston North Central,304,392
en-US,Tomball,Harris,"14302 FM 2920 Rd, Tomball, TX 77377-5504",NWC State Hwy 249 & FM 2920,30.091615,-95.639736,TX,2004-07-21T12:00:00,RG3,Houston Tomball North,364,392
en-US,St. Joseph,Buchanan,"5201 N Belt Hwy, St. Joseph, MO 64506-1297",NEC N Belt Hwy & Cook Rd,39.815468,-94.812352,MO,2005-03-02T12:00:00,RG1,St Joseph,123,194
en-US,Manhattan,Riley,"800 Commons Pl, Manhattan, KS 66503-3001",NWC Fort Riley Blvd & Seth Child Rd,39.171758,-96.605345,KS,2003-07-23T12:00:00,BTC,Manhattan,144,194
en-US,Tucson,Pima,"3901 W Ina Rd, Tucson, AZ 85741-2206",SWC Ina Rd & Thornydale Rd,32.336156,-111.048391,AZ,1993-10-06T12:00:00,RG2,Tucson NW,376,390
en-US,Tucson,Pima,"1225 W Irvington Rd, Tucson, AZ 85714-1167",SWC I-19 & Irvington,32.160961,-110.989723,AZ,2001-07-25T12:00:00,RG2,Tucson SW,376,390
en-US,Tucson,Pima,"4040 N Oracle Rd, Tucson, AZ 85705-2720",NEC Roger Rd & Oracle Rd/St Hwy 77,32.279864,-110.976713,AZ,2009-10-07T12:00:00,RG2,Tucson North,376,390
en-US,Oro Valley,Pima,"10555 N Oracle Rd, Oro Valley, AZ 85737-9353",SWC Oracle (Rte 77) & 1st Ave,32.399158,-110.959446,AZ,1999-03-03T12:00:00,RG2,Oro Valley,376,390
en-US,Tucson,Pima,"3699 E Broadway Blvd, Tucson, AZ 85716-5400",NWC E. Broadway & Alvernon Way,32.22347,-110.914589,AZ,2004-07-21T12:00:00,RG2,Tucson El Con Mall,376,390
en-US,Tucson,Pima,"5255 E Broadway Blvd, Tucson, AZ 85711-3702",NEC E Broadway & Rosemont,32.222957,-110.880256,AZ,1983-07-31T12:00:00,RG2,Tucson Broadway,376,390
en-US,Tucson,Pima,"6500 E Grant Rd, Tucson, AZ 85715-3801",NWC Kolb Rd & Tanque Verde Rd,32.249311,-110.853411,AZ,1993-10-06T12:00:00,RG2,Tucson NE,376,390
en-US,Tucson,Pima,"9615 E Old Spanish Trl, Tucson, AZ 85748-7540",NEC Harrison Rd & 22nd St,32.207417,-110.786774,AZ,2004-03-03T12:00:00,RG2,Tucson SE,376,390
en-US,Chandler,Maricopa,"3777 S ARIZONA AVE, Chandler, AZ 85248",NEC S Arizona Avenue & E Ocotillo Road,33.25002,-111.838331,AZ,2011-07-20T12:00:00,RG2,Chandler South,379,390
en-US,Gilbert,Maricopa,"3931 S Gilbert Rd, Gilbert, AZ 85297-7004",NEC Gilbert Rd & Germann Rd,33.27841,-111.786353,AZ,2005-03-02T12:00:00,RG2,Gilbert SW,379,390
en-US,Chandler,Maricopa,"3425 W Frye Rd, Chandler, AZ 85226-5008",SWC Price Rd & Frye Rd,33.296076,-111.899963,AZ,2003-10-08T12:00:00,RG2,Chandler West Santan,379,390
en-US,Queen Creek,Maricopa,"21398 S Ellsworth Loop Rd, Queen Creek, AZ 85142-5379",NWC Ocotillo Rd & S Ellsworth Rd,33.254419,-111.641632,AZ,2008-03-05T12:00:00,RG2,Queen Creek,374,390
en-US,Phoenix,Maricopa,"4734 E Ray Rd, Phoenix, AZ 85044-6225",NWC Ray & 48th St,33.321379,-111.981542,AZ,1994-07-20T12:00:00,ESF,Ahwatukee,379,390
en-US,Gilbert,Maricopa,"1515 E Warner Rd, Gilbert, AZ 85296-3138",SWC Warner & Val Vista Rds,33.334243,-111.757366,AZ,1999-10-06T12:00:00,RG2,Gilbert,379,390
en-US,Mesa,Maricopa,"5110 S Power Rd, Mesa, AZ 85212-4201",NWC Power Rd & Ray Rd,33.322949,-111.689675,AZ,2005-03-02T12:00:00,RG2,Gilbert SE,374,390
en-US,Phoenix,Maricopa,"2140 E Baseline Rd, Phoenix, AZ 85042-6910",NWC 24th St & Baseline,33.379333,-112.03501,AZ,2004-10-06T12:00:00,RG2,South Mountain,379,390
en-US,Tempe,Maricopa,"1818 E Baseline Rd, Tempe, AZ 85283-1502",NEC Baseline & McClintock Dr,33.379204,-111.907465,AZ,1987-09-09T12:00:00,RG2,Tempe,379,390
en-US,Mesa,Maricopa,"1230 S Longmore Ave, Mesa, AZ 85202-9602",SEC Southern Ave & Longmore,33.392155,-111.864869,AZ,2004-07-21T12:00:00,RG2,Mesa West,379,390
en-US,Mesa,Maricopa,"1135 S Gilbert Rd, Mesa, AZ 85204-5205",NEC Southern Ave & Gilbert Rd,33.394166,-111.785987,AZ,1986-10-08T12:00:00,RG2,Mesa Central,379,390
en-US,Mesa,Maricopa,"1525 S Power Rd, Mesa, AZ 85206-3707",NEC Superstition Frwy & Power,33.388909,-111.683474,AZ,1993-10-06T12:00:00,RG2,Mesa East,374,390
en-US,Tolleson,Maricopa,"9830 W Lower Buckeye Rd, Tolleson, AZ 85353-9424",NEC 99th Ave & Lower Buckeye Rd,33.423059,-112.269381,AZ,2006-07-19T12:00:00,RG2,Phoenix SW,375,390
en-US,Tempe,Maricopa,"1800 E Rio Salado Pkwy, Tempe, AZ 85281-2266",SEC McClintock Dr & Loop 202,33.430441,-111.905248,AZ,2007-07-25T12:00:00,RG2,Tempe NE,379,390
en-US,Goodyear,Maricopa,"995 S Cotton Ln, Goodyear, AZ 85338-4604",NEC Yuma Rd & Cotton Ln,33.437407,-112.421869,AZ,2008-10-08T12:00:00,RG2,Goodyear West,375,390
en-US,Phoenix,Maricopa,"4515 E Thomas Rd, Phoenix, AZ 85018-7614",SEC Thomas Road & 44th St,33.477388,-111.984509,AZ,1995-03-08T12:00:00,RG2,Arcadia Crossing,379,390
en-US,Phoenix,Maricopa,"7409 W Virginia Ave, Phoenix, AZ 85035-1336",SEC 75th Ave & Virginia Ave,33.475425,-112.218617,AZ,1993-07-21T12:00:00,RG2,Westridge,375,390
en-US,Goodyear,Maricopa,"1515 N Litchfield Rd, Goodyear, AZ 85395-1237",NEC I-10 & Litchfield,33.462942,-112.355692,AZ,1999-10-06T12:00:00,RG2,Goodyear,375,390
en-US,Mesa,Maricopa,"2151 N Power Rd, Mesa, AZ 85215-2971",NEC Power Road & McKellips Rd,33.453955,-111.682275,AZ,2001-10-10T12:00:00,RG2,Mesa Red Mountain,374,390
en-US,Phoenix,Maricopa,"1625 E Camelback Rd, Phoenix, AZ 85016-3901",SEC Camelback Rd and 16th St,33.507522,-112.046462,AZ,2017-07-19T12:00:00,,Phoenix Uptown Camelback,375,390
en-US,Phoenix,Maricopa,"5715 N 19th Ave, Phoenix, AZ 85015-2433",SEC Bethany Home Rd & 19th Ave,33.520769,-112.096798,AZ,2007-10-10T12:00:00,RG2,Phoenix Spectrum,375,390
en-US,Scottsdale,Maricopa,"9000 E Talking Stick Way, Scottsdale, AZ 85250-8502",NEC Pima Rd & Indian Bend Rd,33.54021,-111.887628,AZ,1989-02-15T12:00:00,RG2,Scottsdale,377,390
en-US,Glendale,Maricopa,"9350 W Northern Ave, Glendale, AZ 85305-1103",NWC 91st Ave & Northern Ave,33.554179,-112.259787,AZ,2001-10-10T12:00:00,RG2,Peoria SW,375,390
en-US,Glendale,Maricopa,"10404 N 43rd Ave, Glendale, AZ 85302-2019",SWC W Peoria & N 43rd Ave,33.580184,-112.152971,AZ,2007-10-10T12:00:00,RG2,Glendale,375,390
en-US,Phoenix,Maricopa,"12602 N Paradise Village Pkwy W, Phoenix, AZ 85032-7671",NWC Cactus & Paradise Village,33.600407,-111.989239,AZ,1985-10-09T12:00:00,RG2,Paradise Valley,377,390
en-US,Fountain Hills,Maricopa,"16825 E Shea Blvd, Fountain Hills, AZ 85268-6668",SWC Shea Blvd & Saguaro Blvd,33.573929,-111.718355,AZ,2002-10-09T12:00:00,RG2,Fountain Hills,377,390
en-US,Scottsdale,Maricopa,"15444 N Frank Lloyd Wright Blvd, Scottsdale, AZ 85260-2845",SEC Pima & Frank Lloyd Wright,33.627292,-111.888293,AZ,1994-10-05T12:00:00,RG2,North Scottsdale,377,390
en-US,Phoenix,Maricopa,"16806 N 7th St, Phoenix, AZ 85022-2662",SWC Bell Rd & N 7th St,33.638654,-112.068832,AZ,2007-10-10T12:00:00,RG2,Deer Valley,377,390
en-US,Peoria,Maricopa,"8055 W Bell Rd, Peoria, AZ 85382-3806",SEC Bell Rd & 83rd Ave,33.636207,-112.22854,AZ,1992-10-07T12:00:00,ESF,Peoria North,375,390
en-US,Surprise,Maricopa,"13731 W Bell Rd, Surprise, AZ 85374-3871",SWC Bell Rd & Grand Ave,33.637254,-112.3532,AZ,2001-07-25T12:00:00,RG2,Surprise,375,390
en-US,Phoenix,Maricopa,"2727 W Agua Fria Fwy, Phoenix, AZ 85027-3929",SWC Agua Fria Fwy & 27th Ave,33.666761,-112.119577,AZ,1998-07-22T12:00:00,RG2,Phoenix North Central,377,390
en-US,Phoenix,Maricopa,"21001 N Tatum Blvd Ste 20, Phoenix, AZ 85050-4207",NEC Loop 101 & Tatum Blvd,33.674884,-111.974585,AZ,2001-10-10T12:00:00,RG2,Phoenix NE,377,390
en-US,Peoria,Maricopa,"24890 N Lake Pleasant Pkwy, Peoria, AZ 85383-1348",SWC Happy Valley Rd & Lake Pleasant Rd,33.709473,-112.27532,AZ,2007-03-07T12:00:00,RG2,Peoria Far North,375,390
en-US,Sierra Vista,Cochise,"4151 E Highway 90, Sierra Vista, AZ 85635-2425",NEC Hwy 90 & Hwy 92,31.555778,-110.255764,AZ,1996-03-06T12:00:00,RG2,Sierra Vista,376,390
en-US,Scottsdale,Maricopa,"32351 N Scottsdale Rd, Scottsdale, AZ 85266-1513",NEC Scottsdale Rd & Lone Mtn Rd,33.779027,-111.923014,AZ,2001-07-25T12:00:00,RG2,Far North Scottsdale,377,390
en-US,Yuma,Yuma,"1450 S Yuma Palms Pkwy, Yuma, AZ 85365-1707",NWC Pacific Ave & 16th St,32.704743,-114.60538,AZ,2005-10-05T12:00:00,RG2,Yuma,375,390
en-US,Prescott,Yavapai,"1851 E Highway 69, Prescott, AZ 86301-5665",SWC Hwy 69 & Grant St,34.54961,-112.431774,AZ,1994-10-05T12:00:00,RG2,Prescott,377,390
en-US,El Centro,Imperial,"2295 N Imperial Ave, El Centro, CA 92243-1335",SEC Imperial Ave & Cruikshank Dr,32.813328,-115.567642,CA,2003-10-08T12:00:00,RG2,El Centro,201,296
en-US,Flagstaff,Coconino,"1650 S Milton Rd, Flagstaff, AZ 86001-0802",NEC Milton Rd & University Dr,35.183837,-111.66001,AZ,1994-07-20T12:00:00,RG2,Flagstaff,377,390
en-US,Albuquerque,Bernalillo,"9371 Coors Blvd NW, Albuquerque, NM 87114-4005",SWC Coors Rd & Irving Blvd,35.186039,-106.664262,NM,1990-02-21T12:00:00,RG2,Albuquerque NW,378,390
en-US,Albuquerque,Bernalillo,"2120 Louisiana Blvd NE, Albuquerque, NM 87110-5402",SEC Louisiana Blvd & Indian School Road,35.101583,-106.568088,NM,2013-03-06T12:00:00,RG2,Albuquerque Uptown,378,390
en-US,Albuquerque,Bernalillo,"11120 Lomas Blvd NE, Albuquerque, NM 87112-5582",SEC Lomas & Hotel,35.085529,-106.527855,NM,1988-10-05T12:00:00,RG2,Albuquerque Lomas,378,390
en-US,Rio Rancho,Sandoval,"4225 Crestview Dr, Rio Rancho, NM 87124-5903",NWC Rte 528 & Crestview Dr,35.252425,-106.65139,NM,1998-03-04T12:00:00,RG2,Rio Rancho,378,390
en-US,Albuquerque,Bernalillo,"6100 Paseo Del Norte NE, Albuquerque, NM 87113-1512",SEC I-25 & Paseo del Norte,35.172748,-106.58154,NM,2005-10-05T12:00:00,RG2,Albuquerque NE,378,390
en-US,Albuquerque,Bernalillo,"8510 Montgomery Blvd NE, Albuquerque, NM 87111-2307",SWC Montgomery & Chenault,35.130034,-106.547596,NM,1988-10-05T12:00:00,RG2,Albuquerque Wyoming,378,390
en-US,Las Cruces,Dona Ana,"2541 E Lohman Ave, Las Cruces, NM 88011-8233",NEC I-25 & Lohman,32.317435,-106.744205,NM,1997-07-23T12:00:00,RG3,Las Cruces,374,390
en-US,El Paso,El Paso,"801 Sunland Park Dr, El Paso, TX 79912-5209",NEC I-10 & Sunland Park Dr,31.81844,-106.548296,TX,1992-10-07T12:00:00,RG3,El Paso West,374,390
en-US,Farmington,San Juan,"4900 E Main St, Farmington, NM 87402-8658",NEC US 550 & English,36.768639,-108.148215,NM,1995-07-19T12:00:00,RG2,Farmington,378,390
en-US,El Paso,El Paso,"6001 W Gateway Blvd, El Paso, TX 79925-3416",NEC I-10 & Paisano Dr,31.783152,-106.414718,TX,1993-10-06T12:00:00,RG3,El Paso Central,374,390
en-US,Santa Fe,Santa Fe,"3550 Zafarano Dr, Santa Fe, NM 87507-2606",NEC Cerrrillos Rd & Rodeo Rd,35.639352,-106.012863,NM,1997-10-08T12:00:00,RG2,Santa Fe,378,390
en-US,El Paso,El Paso,"1901 George Dieter Dr, El Paso, TX 79936-3855",NWC George Dieter & Montwood,31.769818,-106.305141,TX,1992-10-07T12:00:00,RG3,El Paso East,374,390
en-US,El Paso,El Paso,"1874 Joe Battle Blvd, El Paso, TX 79936-0962",SEC Joe Battle Blvd & Montwood Dr,31.759186,-106.265312,TX,2006-10-04T12:00:00,RG3,El Paso Far East,374,390
en-US,Bullhead City,Mohave,"3699 Hwy 95, Bullhead City, AZ 86442-9119",NWC Route 95 & Richardo Ave,35.051939,-114.592099,AZ,2008-03-05T12:00:00,RG2,Bullhead City,380,390
en-US,Henderson,Clark,"350 W Lake Mead Pkwy, Henderson, NV 89015-7088",NWC State Hwy 146 & Water St,36.038477,-114.994098,NV,2008-07-23T12:00:00,RG2,Henderson South,380,390
en-US,Henderson,Clark,"605 N Stephanie St, Henderson, NV 89014-2612",NWC Stephanie & Sunset,36.065059,-115.047712,NV,1991-10-09T12:00:00,RG2,Henderson,380,390
en-US,Henderson,Clark,"695 S Green Valley Pkwy, Henderson, NV 89052-0404",SWC W Horizon Ridge Pkwy & S Green Valley Pkwy,36.003399,-115.085183,NV,2009-10-07T12:00:00,RG2,Henderson SW,380,390
en-US,Las Vegas,Clark,"9725 S Eastern Ave, Las Vegas, NV 89183-6841",SWC Eastern Ave & Silverado,36.012118,-115.121798,NV,1999-07-21T12:00:00,RG2,Las Vegas Silverado Ranch,380,390
en-US,Las Vegas,Clark,"1200 S Nellis Blvd, Las Vegas, NV 89104-5752",SEC S Nellis & Charleston Blvd,36.15806,-115.060962,NV,1987-07-22T12:00:00,RG2,Las Vegas East,373,390
en-US,Las Vegas,Clark,"4001 S Maryland Pkwy, Las Vegas, NV 89119-7556",NWC Maryland Pkwy & Flamingo,36.116541,-115.13886,NV,1987-07-22T12:00:00,RG2,Las Vegas Flamingo,380,390
en-US,Las Vegas,Clark,"4100 Blue Diamond Rd, Las Vegas, NV 89139-7717",NWC Blue Diamond Rd & Hinson,36.04072,-115.194644,NV,2006-10-04T12:00:00,RG2,Las Vegas Blue Diamond,380,390
en-US,North Las Vegas,Clark,"7090 N 5th St, North Las Vegas, NV 89084-1333",SEC 215 Beltway & N 5th St,36.288669,-115.133095,NV,2009-03-04T12:00:00,RG2,N Las Vegas Deer SP,373,390
en-US,Las Vegas,Clark,"3550 S Rainbow Blvd, Las Vegas, NV 89103-1004",SEC Spring Mountain & Rainbow,36.124402,-115.241548,NV,1993-07-21T12:00:00,RG2,West Las Vegas,373,390
en-US,Saint George,Washington,"275 S River Rd, Saint George, UT 84790-2116",NEC River Rd & 500 South St,37.102987,-113.554468,UT,2001-07-25T12:00:00,RG2,St George,373,390
en-US,Las Vegas,Clark,"6371 N Decatur Blvd, Las Vegas, NV 89130-8001",SWC Hwy 215 & N Decatur Blvd,36.272988,-115.209482,NV,2009-07-22T12:00:00,RG2,Las Vegas N Decatur,373,390
en-US,Las Vegas,Clark,"3210 N Tenaya Way, Las Vegas, NV 89129-6239",NEC Cheyenne & Tenaya Way,36.219536,-115.24983,NV,1992-10-07T12:00:00,RG2,Las Vegas NW,373,390
en-US,Las Vegas,Clark,"8750 W Charleston Blvd, Las Vegas, NV 89117-5452",NEC Charleston Blvd & Rampart,36.161086,-115.287134,NV,1999-07-21T12:00:00,RG2,Las Vegas Boca Park,373,390
en-US,Las Vegas,Clark,"4155 S Grand Canyon Dr, Las Vegas, NV 89147-7123",SWC I-215 & Flamingo Rd,36.114471,-115.311127,NV,2003-03-05T12:00:00,ESF,Las Vegas Far SW,380,390
en-US,Las Vegas,Clark,"6480 Sky Pointe Dr, Las Vegas, NV 89131-4038",NEC US 95 & Centennial Pkwy,36.280438,-115.263741,NV,2002-07-24T12:00:00,RG2,Las Vegas Far NW,373,390
en-US,La Quinta,Riverside,"78935 US Hwy 111, La Quinta, CA 92253-2072",SEC Washington St & Hwy 111,33.708582,-116.289698,CA,2004-03-03T12:00:00,RG2,La Quinta,205,292
en-US,Palm Desert,Riverside,"72549 Highway 111, Palm Desert, CA 92260-3306",SWC Fred Waring Dr & Rte 111,33.724327,-116.403427,CA,1995-03-08T12:00:00,RG2,Palm Desert,205,292
en-US,Cathedral City,Riverside,"67750 E Palm Canyon Dr, Cathedral City, CA 92234-5441",NEC Hwy 111 & Creek Rd,33.789552,-116.481456,CA,1987-07-22T12:00:00,RG2,Palm Springs,205,292
en-US,Apple Valley,San Bernardino,"20288 US Highway 18, Apple Valley, CA 92307-2937",SEC Hwy 18 & Thunderbird Rd,34.527472,-117.217228,CA,2007-07-25T12:00:00,RG2,Apple Valley North,248,292
en-US,Apple Valley,San Bernardino,"19201 Bear Valley Rd, Apple Valley, CA 92308-6763",SWC Apple Vly & Bear Vly Rd,34.469177,-117.243953,CA,1994-10-05T12:00:00,RG2,Apple Valley,248,292
en-US,Hesperia,San Bernardino,"12795 Main St, Hesperia, CA 92345-9110",SWC I-15 & Main St,34.425036,-117.383994,CA,2008-10-08T12:00:00,RG2,Hesperia,248,292
en-US,San Bernardino,San Bernardino,"2380 Sterling Ave, San Bernardino, CA 92404-4624",NWC N Sterling & Highland Aves,34.138128,-117.24501,CA,1987-07-22T12:00:00,RG2,San Bernardino,248,292
en-US,Redlands,San Bernardino,"27320 W Lugonia Ave, Redlands, CA 92374-2041",NEC Alabama & Lugonia Ave,34.071916,-117.206907,CA,2004-03-03T12:00:00,RG2,Redlands,248,292
en-US,Hemet,Riverside,"3527 W Florida Ave, Hemet, CA 92545-3564",SWC Florida Ave & Sanderson Av,33.745886,-117.008866,CA,1995-10-04T12:00:00,RG2,Hemet,205,292
en-US,Moreno Valley,Riverside,"27100 Eucalyptus Ave, Moreno Valley, CA 92555-4522",SEC Hwy 60 & Nason St,33.937658,-117.189116,CA,2007-07-25T12:00:00,RG2,Moreno Valley East,232,292
en-US,San Bernardino,San Bernardino,"499 W Orange Show Rd, San Bernardino, CA 92408-2029",SEC Orangeshow Rd & South St,34.078716,-117.291844,CA,1983-04-13T12:00:00,RG2,Orange Show,248,292
en-US,Riverside,Riverside,"2755 Canyon Springs Pkwy, Riverside, CA 92507-0932",SWC Canyon Springs Pkwy & Day St,33.938916,-117.28174,CA,2003-10-08T12:00:00,RG2,Riverside SE,232,292
en-US,Fontana,San Bernardino,"15272 Summit Ave, Fontana, CA 92336-0231",NEC I-15 & Summit Ave,34.152152,-117.472963,CA,2005-03-02T12:00:00,RG2,Fontana North,248,292
en-US,Menifee,Riverside,"30340 Haun Rd, Menifee, CA 92584-6806",SWC I-215 & Newport Rd,33.680105,-117.172837,CA,2008-10-08T12:00:00,RG2,Menifee,205,292
en-US,Fontana,San Bernardino,"16964 Slover Ave, Fontana, CA 92337-7556",SEC Sierra & I-10,34.064981,-117.434569,CA,1992-03-11T12:00:00,RG2,Fontana,248,292
en-US,Riverside,Riverside,"3333 Arlington Ave, Riverside, CA 92506-3252",NEC Arlington Ave & McMahon St,33.947388,-117.382433,CA,1987-09-09T12:00:00,RG2,Riverside Arlington,232,292
en-US,Murrieta,Riverside,"27818 Clinton Keith Rd, Murrieta, CA 92562-8554",NWC I-215 & Clinton Keith Rd,33.603888,-117.173596,CA,2009-07-22T12:00:00,RG2,Murrieta North,205,292
en-US,Grand Junction,Mesa,"2424 Highway 6 and 50 Ste C, Grand Junction, CO 81505-1103",NEC Hwy 6 & 24 Rd,39.09287,-108.601179,CO,1980-10-28T12:00:00,RG2,Grand Junction,179,197
en-US,Montrose,Montrose,"3530 Wolverine Dr, Montrose, CO 81401-4952",NWC US 550 & Otter Rd,38.443756,-107.86855,CO,2007-10-10T12:00:00,RG2,Montrose,179,197
en-US,Orem,Utah,"175 W Center St, Orem, UT 84057-4607",SWC Center St & Orem Blvd,40.2959,-111.699239,UT,1997-03-05T12:00:00,RG2,Orem State Street,178,197
en-US,American Fork,Utah,"608 W Main St, American Fork, UT 84003-9762",NEC I-15 & W Main St,40.378504,-111.815253,UT,2003-07-23T12:00:00,RG2,American Fork,178,197
en-US,Temecula,Riverside,"29676 Rancho California Rd, Temecula, CA 92591-5283",NEC Rancho CA Rd & Ynez Rd,33.506295,-117.146352,CA,1989-02-15T12:00:00,RG2,Rancho California,205,292
en-US,Murrieta,Riverside,"41040 California Oaks Rd, Murrieta, CA 92562-5749",SEC I-15 & Calif Oaks Blvd,33.565642,-117.203908,CA,2000-07-19T12:00:00,RG2,Murrieta,205,292
en-US,Riverside,Riverside,"3520 Tyler St, Riverside, CA 92503-4175",NWC Tyler Ave & Hwy 91,33.906912,-117.459627,CA,1983-10-12T12:00:00,RG2,Riverside,232,292
en-US,Rancho Cucamonga,San Bernardino,"10576 Foothill Blvd, Rancho Cucamonga, CA 91730-3890",NEC Foothill Blvd & Haven Ave,34.108229,-117.573899,CA,1990-03-28T12:00:00,RG2,Rancho Cucamonga,206,292
en-US,Ontario,San Bernardino,"4200 E 4th St, Ontario, CA 91764-5250",SWC 4th St & Milliken Ave,34.0758,-117.561778,CA,2007-03-07T12:00:00,RG2,Ontario,206,292
en-US,Lake Elsinore,Riverside,"18287 Collier Ave, Lake Elsinore, CA 92530-2755",NWC Central St & Collier Ave,33.689146,-117.341996,CA,2006-10-04T12:00:00,RG2,Lake Elsinore,232,292
en-US,Mira Loma,Riverside,"12471 Limonite Ave, Mira Loma, CA 91752-2457",NWC Limonite Ave & I-15,33.977914,-117.553818,CA,2005-07-20T12:00:00,RG2,Eastvale,232,292
en-US,Upland,San Bernardino,"1931 Campus Ave, Upland, CA 91784-1667",SEC Campus Ave & I-210,34.133189,-117.641221,CA,2005-03-02T12:00:00,RG2,Upland,206,292
en-US,Corona,Riverside,"2615 Tuscanny St, Corona, CA 92881-4631",NEC I-15 & Cajalco Canyon Rd,33.826266,-117.516614,CA,2003-07-23T12:00:00,RG2,Corona,232,292
en-US,Norco,Riverside,"1290 Hamner Ave, Norco, CA 92860-3117",SWC Hamner Ave & 1st St,33.900756,-117.564353,CA,1995-10-04T12:00:00,RG2,Norco,232,292
en-US,Montclair,San Bernardino,"9052 Central Ave, Montclair, CA 91763-1621",NWC Central Ave & Moreno St,34.089834,-117.690544,CA,2002-07-24T12:00:00,RG2,Montclair,206,292
en-US,Chino,San Bernardino,"5555 Philadelphia St, Chino, CA 91710-2481",NEC St Hwy 60 & Central Ave,34.032494,-117.682043,CA,1987-02-18T12:00:00,RG2,Chino,206,292
en-US,La Verne,Los Angeles,"2462 Foothill Blvd, La Verne, CA 91750-3056",SEC Foothill Blvd & White Ave,34.11006,-117.759886,CA,1985-07-24T12:00:00,RG2,Laverne,206,292
en-US,Chino,San Bernardino,"3944 Grand Ave, Chino, CA 91710-5422",NWC Pipeline Ave & Grand Ave,34.001494,-117.718243,CA,1994-07-20T12:00:00,RG2,Chino Hills,206,292
en-US,Pomona,Los Angeles,"701 Rio Rancho Road, Pomona, CA 91766",NEC Rio Rancho & Auto Center Dr,34.034637,-117.756544,CA,2013-10-09T12:00:00,RG2,Pomona,206,292
en-US,Escondido,San Diego,"1280 Auto Park Way, Escondido, CA 92029-2231",NEC Auto Pkwy S & Valley Pkwy,33.113107,-117.099632,CA,1987-10-07T12:00:00,RG2,Escondido,231,296
en-US,Escondido,San Diego,"280 E Via Rancho Pkwy, Escondido, CA 92025-8005",NEC I-15 & E. Via Rancho Parkway,33.069927,-117.065291,CA,2012-10-10T12:00:00,RG2,Escondido South,231,296
en-US,San Dimas,Los Angeles,"888 W Arrow Hwy, San Dimas, CA 91773-2495",SWC I-210 & Arrow Hwy,34.104422,-117.823254,CA,1997-03-05T12:00:00,RG2,San Dimas,206,292
en-US,Vista,San Diego,"1751 University Dr, Vista, CA 92083-7775",NWC Hwy 78 & Sycamore Ave,33.169156,-117.214363,CA,1997-03-05T12:00:00,RG2,Vista,261,296
en-US,Rancho Santa Margarita,Orange,"30602 Santa Margarita Pkwy, Rancho Santa Margarita, CA 92688-2814",SEC Santa Margarita & Avenida,33.641838,-117.597587,CA,1994-10-05T12:00:00,RG2,Rancho Santa Margarita,261,296
en-US,Oceanside,San Diego,"443 College Blvd, Oceanside, CA 92057-5435",NWC Highway 76 (Mission Ave) & College Blvd,33.247039,-117.293228,CA,2017-11-08T12:00:00,,Oceanside East,261,296
en-US,Anaheim,Orange,"8148 E Santa Ana Canyon Rd, Anaheim, CA 92808-1105",SWC E Santa Ana Canyon & Roosevelt,33.865805,-117.747645,CA,1992-10-07T12:00:00,RG2,Anaheim Hills,244,292
en-US,Diamond Bar,Los Angeles,"747 Grand Ave, Diamond Bar, CA 91765-8400",SWC Grand Ave & Golden Springs Dr,34.005008,-117.821076,CA,2006-10-04T12:00:00,RG2,Diamond Bar,217,292
en-US,Poway,San Diego,"14823 Pomerado Rd, Poway, CA 92064-2803",SEC Pomerado & Camino Del Norte,32.980582,-117.060866,CA,1988-02-17T12:00:00,RG2,Poway,231,296
en-US,Palmdale,Los Angeles,"38019 47Th St E, Palmdale, CA 93552-3103",SWC Palmdale Blvd & 47th St/Hwy 138,34.574355,-118.047839,CA,2008-07-23T12:00:00,RG2,Palmdale East,219,294
en-US,Vista,San Diego,"3150 Business Park Dr, Vista, CA 92081-8520",NEC Business Park Dr & Poinsettia Ave,33.13671,-117.228517,CA,2009-07-22T12:00:00,RG2,Vista South,261,296
en-US,Foothill Ranch,Orange,"26762 Portola Pkwy, Foothill Ranch, CA 92610-1712",NWC Portola Pkwy & Bake Pkwy,33.676954,-117.664298,CA,1994-10-05T12:00:00,RG2,Foothill Ranch,261,296
en-US,Azusa,Los Angeles,"809 N Azusa Ave, Azusa, CA 91702-2510",SWC Azusa Ave & W 9th St,34.135589,-117.907781,CA,2010-10-06T12:00:00,RG2,Azusa,263,292
en-US,San Diego,San Diego,"17170 Camino Del Sur, San Diego, CA 92127-4166",SWC of Camino Del Sur and 4 Gee Rd,33.020167,-117.125633,CA,2015-10-07T12:00:00,ESF,San Diego Del Sur,231,296
en-US,West Covina,Los Angeles,"2831 E Eastland Ctr Dr, West Covina, CA 91791-1624",NEC Citrus Ave & I-10,34.07412,-117.884696,CA,1996-10-02T12:00:00,RG2,West Covina,217,292
en-US,Oceanside,San Diego,"2255 S El Camino Real, Oceanside, CA 92054-6318",NWC El Camino Real & Vista Way,33.184026,-117.329697,CA,1987-09-09T12:00:00,RG2,Oceanside,261,296
en-US,Santee,San Diego,"9846 Mission Gorge Rd, Santee, CA 92071-3834",NEC Mission Gorge Rd & Cuyamaca St,32.841939,-116.983013,CA,2002-10-09T12:00:00,RG2,Santee,231,296
en-US,Mission Viejo,Orange,"25601 Jeronimo Rd, Mission Viejo, CA 92691-2794",NEC Jeronimo Rd & Los Alisos Blvd,33.623323,-117.681618,CA,2007-10-10T12:00:00,RG2,Mission Viejo N,261,296
en-US,West Covina,Los Angeles,"2370 S Azusa Ave, West Covina, CA 91792-1511",NEC Azusa Ave & Amar Rd,34.033547,-117.912146,CA,2008-03-05T12:00:00,RG2,West Covina South,217,292
en-US,El Cajon,San Diego,"250 Broadway, El Cajon, CA 92021-4539",NWC Broadway & Ballantyne,32.809271,-116.958998,CA,1987-09-09T12:00:00,RG2,El Cajon,231,296
en-US,Mission Viejo,Orange,"24500 Alicia Pkwy, Mission Viejo, CA 92691-4508",NEC Alicia Parkway & I-5,33.606277,-117.688812,CA,1987-07-22T12:00:00,RG2,Mission Viejo,261,296
en-US,Lancaster,Los Angeles,"43525 10th St W, Lancaster, CA 93534-6091","SWC Ave ""K"" & 10th St W",34.673656,-118.149399,CA,1986-10-08T12:00:00,RG2,Lancaster,219,294
en-US,Duarte,Los Angeles,"1050 Huntington Dr, Duarte, CA 91010-2475",SEC Huntington Dr & Bradbury,34.138102,-117.982918,CA,1987-09-09T12:00:00,RG2,Duarte,263,292
en-US,Rowland Heights,Los Angeles,"17751 Colima Rd, Rowland Heights, CA 91748-1714",NWC Colima Rd & Walnut Hall Dr,33.991768,-117.919052,CA,1984-10-10T12:00:00,RG2,Puente Hills,217,292
en-US,Orange,Orange,"2191 N Tustin St, Orange, CA 92865-3701",NEC Tustin Ave & Meats Ave,33.824384,-117.834997,CA,1985-10-09T12:00:00,RG2,Orange,244,292
en-US,Brea,Orange,"855 E Birch St, Brea, CA 92821-5769",NWC E Birch St & N State College Blvd,33.918693,-117.886971,CA,2009-10-07T12:00:00,RG2,Brea,244,292
en-US,Encinitas,San Diego,"1010 N El Camino Real, Encinitas, CA 92024-1320",SWC El Camino Real & Olivenhain,33.06304,-117.264711,CA,1996-10-02T12:00:00,RG2,Encinitas,231,296
en-US,San Clemente,Orange,"990 Avenida Vista Hermosa, San Clemente, CA 92673-6360",NWC La Pata Ave & Vista Hermosa Ave,33.463108,-117.606739,CA,2011-10-05T12:00:00,RG2,San Clemente,261,296
en-US,Irvine,Orange,"13200 Jamboree Rd, Irvine, CA 92602-2307",SEC Irvine Blvd & Jamboree Rd,33.727436,-117.784915,CA,1999-10-06T12:00:00,RG2,Irvine North,202,296
en-US,Fullerton,Orange,"2920 Yorba Linda Blvd, Fullerton, CA 92831-1523",SEC Yorba Linda Blvd & Placentia,33.887729,-117.877297,CA,1987-07-22T12:00:00,RG2,Fullerton,244,292
en-US,Palmdale,Los Angeles,"39440 10th St W, Palmdale, CA 93551-3747","SEC Ave ""P"" & 10th St",34.599359,-118.146734,CA,1991-10-09T12:00:00,RG2,Palmdale,219,294
en-US,Irvine,Orange,"900 Spectrum Center Dr, Irvine, CA 92618-4958",NWC I-5 & I-405,33.64795,-117.740077,CA,2006-07-19T12:00:00,RG2,Irvine Spectrum,202,296
en-US,Orange,Orange,"2620 E Chapman Ave, Orange, CA 92869-3205",SEC E. Chapman Ave and S.Yorba St,33.787208,-117.825177,CA,2017-10-18T12:00:00,,East Orange,222,296
en-US,Baldwin Park,Los Angeles,"3100 Baldwin Park Blvd, Baldwin Park, CA 91706-4703",NEC I-10 & Baldwin Park,34.06949,-117.977457,CA,1997-07-23T12:00:00,RG2,Baldwin Park,263,292
en-US,Aliso Viejo,Orange,"26932 La Paz Rd, Aliso Viejo, CA 92656-3038",NEC La Paz & Pacific Park,33.570957,-117.705313,CA,1987-02-18T12:00:00,RG2,Aliso Viejo,261,296
en-US,El Cajon,San Diego,"2911 Jamacha Rd, El Cajon, CA 92019-4342",SEC Jamacha Rd & Hwy 94,32.738795,-116.93853,CA,1998-10-07T12:00:00,RG2,Rancho San Diego,201,296
en-US,San Diego,San Diego,"8251 Mira Mesa Blvd, San Diego, CA 92126-2603",SWC Mira Mesa Blvd & Camino Ruiz,32.910813,-117.146313,CA,1987-07-22T12:00:00,RG2,Mira Mesa,231,296
en-US,La Mesa,San Diego,"5500 Grossmont Ctr Dr, La Mesa, CA 91942-3015",NEC I-8 & Jackson Dr,32.779717,-117.012303,CA,1995-07-19T12:00:00,RG2,Grossmont,201,296
en-US,Santa Ana,Orange,"1330 E 17th St, Santa Ana, CA 92705-8500",SEC E 17th St & Grand Ave,33.759257,-117.850704,CA,1987-09-09T12:00:00,RG2,Santa Ana,222,296
en-US,Irvine,Orange,"3750 Barranca Pkwy, Irvine, CA 92606-8200",SWC Barranca Pkwy & Culver Dr,33.685581,-117.812576,CA,1988-07-20T12:00:00,RG2,Irvine,202,296
en-US,Tustin,Orange,"2300 Park Ave, Tustin, CA 92782-2702",NEC Jamboree Rd & Barranca Pkwy,33.69995,-117.828042,CA,2007-07-25T12:00:00,RG2,Tustin,202,296
en-US,La Habra,Orange,"1000 W Imperial Hwy, La Habra, CA 90631-6901",SEC Imperial Hwy & Idaho St,33.916115,-117.956657,CA,2008-07-23T12:00:00,RG2,La Habra,244,292
en-US,Fullerton,Orange,"200 W Orangethorpe Ave, Fullerton, CA 92832-2900",SWC Orangethorpe Ave & Harbor Blvd,33.858511,-117.927687,CA,2002-07-24T12:00:00,RG2,Fullerton South,244,292
en-US,Santa Ana,Orange,"1441 W 17th St, Santa Ana, CA 92706-3301",NWC Bristol & 17th St,33.761461,-117.887485,CA,2004-10-06T12:00:00,RG2,Santa Ana NW,222,296
en-US,Fullerton,Orange,"1893 W Malvern Ave, Fullerton, CA 92833-2403",NEC Malvern Ave & Gilbert St,33.87942,-117.961619,CA,2001-10-10T12:00:00,RG2,West Fullerton,244,292
en-US,Pasadena,Los Angeles,"3121 E Colorado Blvd, Pasadena, CA 91107-3814",NEC Colorado Blvd & Kineola Av,34.147097,-118.085751,CA,2001-07-25T12:00:00,RG2,Pasadena East,236,294
en-US,Garden Grove,Orange,"12100 Harbor Blvd, Garden Grove, CA 92840-4004",SEC Harbor Blvd & Chapman Ave,33.787031,-117.913614,CA,1983-04-13T12:00:00,RG2,Garden Grove Harbor,222,296
en-US,Whittier,Los Angeles,"15614 Whittwood Ln, Whittier, CA 90603-2324",SWC Whittier Blvd & Santa Gertrudes Ave,33.943006,-117.996039,CA,2005-10-05T12:00:00,RG2,Whittier,217,292
en-US,Anaheim,Orange,"101 S Euclid St, Anaheim, CA 92802-1011",SWC Lincoln Ave & Euclid St,33.831712,-117.942535,CA,2008-07-23T12:00:00,RG2,Anaheim,244,292
en-US,Irvine,Orange,"4255 CAMPUS DR STE A150, Irvine, CA 92612-2668",NWC Stanford & Campus Drive,33.649956,-117.838337,CA,2017-07-19T12:00:00,,Irvine University Town Center,202,296
en-US,Rosemead,Los Angeles,"3600 Rosemead Blvd, Rosemead, CA 91770-2066",NEC Rosemead Blvd & I-10,34.074952,-118.070068,CA,2002-03-06T12:00:00,RG2,Rosemead,263,292
en-US,San Diego,San Diego,"3424 College Ave, San Diego, CA 92115-7134",SWC SR 94 & College Ave,32.74126,-117.055525,CA,2003-10-08T12:00:00,RG2,Lemon Grove,201,296
en-US,Santa Ana,Orange,"3300 S Bristol St, Santa Ana, CA 92704-7246",SWC Bristol & Alton,33.702755,-117.886981,CA,1986-10-08T12:00:00,RG2,Santa Ana,202,296
en-US,San Diego,San Diego,"8001 Othello Ave, San Diego, CA 92111-3713",SEC Othello & Convoy St,32.816365,-117.151026,CA,1983-02-23T12:00:00,RG2,Kearny Mesa,231,296
en-US,Chula Vista,San Diego,"910 Eastlake Pkwy, Chula Vista, CA 91914-3558",NWC E Lake Pkwy & Otay Lakes Rd,32.649071,-116.969107,CA,2003-10-08T12:00:00,RG2,Chula Vista East,201,296
en-US,San Diego,San Diego,"5680 Balboa Ave, San Diego, CA 92111-2702",NEC State Hwy 274 & Genesee Ave,32.822049,-117.179293,CA,2008-10-08T12:00:00,ESF,Balboa,231,296
en-US,Buena Park,Orange,"7530 Orangethorpe Ave, Buena Park, CA 90621-3429",SWC Orangethorpe Ave & Beach Blvd,33.857675,-118.001071,CA,2005-10-05T12:00:00,RG2,Buena Park,244,292
en-US,Pasadena,Los Angeles,"777 E Colorado Blvd, Pasadena, CA 91101-2104",NWC Hudson Ave & Colorado Blvd,34.146769,-118.134738,CA,1994-03-09T12:00:00,RG2,Pasadena,236,294
en-US,Santa Fe Springs,Los Angeles,"10621 Carmenita Rd, Santa Fe Springs, CA 90670-4017",SWC Carmanita & Telegraph,33.937929,-118.047758,CA,1985-07-24T12:00:00,RG2,Santa Fe Springs,217,292
en-US,Garden Grove,Orange,"13831 Brookhurst St, Garden Grove, CA 92843-3120",NWC Brookhurst & Westminster Av,33.761503,-117.955915,CA,1983-04-13T12:00:00,RG2,Brookhurst,222,296
en-US,Costa Mesa,Orange,"3030 Harbor Blvd Ste A, Costa Mesa, CA 92626-2562",NEC Harbor Blvd & Baker St,33.682425,-117.917837,CA,2000-10-04T12:00:00,RG2,Costa Mesa,202,296
en-US,Pico Rivera,Los Angeles,"8800 Whittier Blvd, Pico Rivera, CA 90660-2658",SWC Whittier Blvd & Rosemead Blvd,34.001125,-118.085999,CA,2002-07-24T12:00:00,ESF,Pico Rivera,263,292
en-US,San Diego,San Diego,"1288 Camino Del Rio N, San Diego, CA 92108-1511",NEC I-8 & Mission Center Rd,32.767561,-117.150905,CA,2002-07-24T12:00:00,RG2,San Diego Mission Valley,201,296
en-US,Alhambra,Los Angeles,"2120 W Main St, Alhambra, CA 91801-1856",SWC Palm St & Poplar Blvd,34.090945,-118.147496,CA,1983-04-13T12:00:00,RG2,Alhambra,263,292
en-US,Cypress,Orange,"6835 Katella Ave, Cypress, CA 90630-5107",NWC Knott & Katella,33.803731,-118.012902,CA,1985-10-09T12:00:00,RG2,Cypress,222,296
en-US,San Diego,San Diego,"3030 Grape St, San Diego, CA 92102-1134",NEC Fern & Grape,32.72686,-117.12904,CA,2015-10-07T12:00:00,,San Diego South Park,201,296
en-US,Norwalk,Los Angeles,"12051 Imperial Hwy, Norwalk, CA 90650-3084",NWC Imperial & Norwalk,33.917962,-118.07613,CA,2002-07-24T12:00:00,ESF,Norwalk East,217,292
en-US,Westminster,Orange,"16400 Beach Blvd, Westminster, CA 92683-7858",SEC Beach Blvd & Edinger,33.725383,-117.98629,CA,1986-10-08T12:00:00,RG2,Westminster,202,296
en-US,Huntington Beach,Orange,"9882 Adams Ave, Huntington Beach, CA 92646-4808",SWC Brookhurst St & Adams Ave,33.671499,-117.955653,CA,2005-10-05T12:00:00,RG2,Huntington Beach East,202,296
en-US,National City,San Diego,"3060 Plaza Bonita Rd, National City, CA 91950-8004",SEC I-805,32.6545,-117.06489,CA,2008-07-23T12:00:00,RG2,Natl Cty Pl Bonita,201,296
en-US,Cerritos,Los Angeles,"20200 Bloomfield Ave, Cerritos, CA 90703-7821",NEC Bloomfield & Del Amo Blvd,33.847157,-118.062572,CA,1987-09-09T12:00:00,RG2,Cerritos,222,296
en-US,Westminster,Orange,"200 Westminster Mall, Westminster, CA 92683-4984",NEC I-405 & Bolsa Ave,33.745618,-118.012257,CA,2007-07-25T12:00:00,RG2,Westminster NW,202,296
en-US,Norwalk,Los Angeles,"10600 Firestone Blvd, Norwalk, CA 90650-7410",SWC I-605 & Firestone Blvd,33.925134,-118.107045,CA,2001-07-25T12:00:00,RG2,Norwalk,217,292
en-US,Commerce,Los Angeles,"5600 Whittier Blvd, Commerce, CA 90022-4106",SWC Whittier Blvd & Eastmont Ave,34.018203,-118.1508,CA,1983-04-13T12:00:00,RG2,Commerce,263,292
en-US,San Diego,San Diego,"3245 Sports Arena Blvd, San Diego, CA 92110-4529",NWC East Dr & Midway Dr,32.751897,-117.210247,CA,1983-02-23T12:00:00,RG2,Sports Arena,201,296
en-US,Cerritos,Los Angeles,"11525 South St, Cerritos, CA 90703-6627",NEC South St & Gridley Rd,33.859295,-118.08794,CA,2000-10-04T12:00:00,RG2,Cerritos West,222,296
en-US,Los Angeles,Los Angeles,"2626 Colorado Blvd, Los Angeles, CA 90041-1070",SEC Colorado Blvd & Glendale Frwy,34.141668,-118.224336,CA,2002-07-24T12:00:00,RG2,Los Angeles Eagle Rock,236,294
en-US,Los Angeles,Los Angeles,"4211 Eagle Rock Blvd, Los Angeles, CA 90065-4404",NEC Eagle Rock and W Ave 42,34.122936,-118.225142,CA,2017-10-18T12:00:00,,LA Glassell Park,236,294
en-US,Seal Beach,Orange,"12300 Seal Beach Blvd, Seal Beach, CA 90740-2709",NEC I-405 & Seal Beach Blvd,33.782654,-118.069999,CA,2001-03-07T12:00:00,RG2,Seal Beach,222,296
en-US,Chula Vista,San Diego,"1240 Broadway, Chula Vista, CA 91911-2911",NWC Polomar St & Broadway,32.60458,-117.080426,CA,1983-02-23T12:00:00,RG2,Chula Vista Broadway,201,296
en-US,South Gate,Los Angeles,"5700 Firestone Blvd, South Gate, CA 90280-3704",SWC Firestone & Garfield Eastern,33.948376,-118.16749,CA,1983-04-13T12:00:00,RG2,South Gate,263,292
en-US,Glendale,Los Angeles,"2195 Glendale Galleria, Glendale, CA 91210-2101",NWC Colorado St & Central Blvd,34.143081,-118.259088,CA,2007-07-25T12:00:00,RG2,Glendale,236,294
en-US,Long Beach,Los Angeles,"5760 E 7TH ST, Long Beach, CA 90803-2002",NEC 7th St & Pacific Coast Hwy,33.7744,-118.11967,CA,2016-03-09T12:00:00,,Long Beach Bixby,207,296
en-US,Long Beach,Los Angeles,"2270 N Bellflower Blvd, Long Beach, CA 90815-2017",NEC Bellflower Blvd & 23rd St,33.798438,-118.123236,CA,1983-04-13T12:00:00,RG2,Long Beach Bellflower,207,296
en-US,Lakewood,Los Angeles,"141 Lakewood Center Mall, Lakewood, CA 90712-2419",NEC Del Amo Blvd & Lakewood Blvd,33.853038,-118.139819,CA,2003-10-08T12:00:00,RG2,Lakewood Center Mall,207,296
en-US,Signal Hill,Los Angeles,"950 E 33rd St, Signal Hill, CA 90755-5114",NEC I-405 & Atlantic Ave,33.816819,-118.182166,CA,2007-07-25T12:00:00,RG2,Signal Hill,207,296
en-US,Long Beach,Los Angeles,"6750 Cherry Ave, Long Beach, CA 90805-1717",NEC State Hwy 91 & Cherry Ave,33.877571,-118.166633,CA,2008-10-08T12:00:00,RG2,Long Beach NW,207,296
en-US,Compton,Los Angeles,"1621 S Alameda St, Compton, CA 90220-4973",NWC Alameda St & Artesia Blvd,33.879653,-118.218942,CA,2007-10-10T12:00:00,RG2,Compton-Rancho Dom,207,296
en-US,San Pedro,Los Angeles,"1701 N Gaffey St, San Pedro, CA 90731-1274",NWC Gaffey St & Capitol Dr,33.760087,-118.293472,CA,2008-10-08T12:00:00,RG2,San Pedro,207,296
en-US,Carson,Los Angeles,"20700 S Avalon Blvd, Carson, CA 90746-3701",NEC S. Avalon Blvd and E Dominguez St,33.843169,-118.260619,CA,2005-10-05T12:00:00,RG2,Carson North,207,296
en-US,Carson,Los Angeles,"651 W Sepulveda Blvd, Carson, CA 90745-6314",NEC Sepulveda Blvd & I-110,33.809239,-118.285654,CA,2007-10-10T12:00:00,RG2,Carson,207,296
en-US,Gardena,Los Angeles,"2169 W Redondo Beach Blvd, Gardena, CA 90247-3625",NEC Redondo Beach & Van Ness,33.886675,-118.316079,CA,1987-09-09T12:00:00,RG2,Gardena,239,294
en-US,Torrance,Los Angeles,"3433 Sepulveda Blvd, Torrance, CA 90505-2606",NWC Sepulveda Blvd & Madrona Ave,33.826449,-118.345986,CA,1983-04-13T12:00:00,RG2,Torrance,239,294
en-US,Hawthorne,Los Angeles,"2700 W 120th St, Hawthorne, CA 90250-3388",SWC 120th St & Van Ness Ave,33.922567,-118.321126,CA,2008-10-08T12:00:00,RG2,Hawthorne,239,294
en-US,Los Angeles,Los Angeles,"735 S Figueroa St, Los Angeles, CA 90017",SWC 7th & Figueroa,34.048833,-118.261007,CA,2012-10-10T12:00:00,RG2,LA Central,204,294
en-US,Redondo Beach,Los Angeles,"1601 Kingsdale Ave, Redondo Beach, CA 90278-3928",SWC Artesia Blvd & Kingsdale Ave,33.869308,-118.357051,CA,2005-10-05T12:00:00,RG2,Redondo Beach,239,294
en-US,LOS ANGELES,LOS ANGELES,"3131 S HOOVER ST STE 1910, LOS ANGELES, CA 90089-1910",NWC HOOVER ST AND JEFFERSON BLVD,34.024306,-118.285114,CA,2017-07-19T12:00:00,,Los Angeles USC Village,204,294
en-US,Inglewood,Los Angeles,"3471 W Century Blvd, Inglewood, CA 90301-1218",NWC Century Blvd & 11th Ave,33.948025,-118.332844,CA,2001-03-07T12:00:00,RG2,Inglewood,239,294
en-US,Los Angeles,Los Angeles,"620 S Virgil Ave Ste 100, Los Angeles, CA 90005-4080",W 6th St and S. Virgil Ave,34.06264,-118.286131,CA,2018-04-04T12:00:00,,Los Angeles Koreatown,204,294
en-US,Manhattan Beach,Los Angeles,"1200 N Sepulveda Blvd, Manhattan Beach, CA 90266-5104",NEC Sepulveda & Manhattan Bch,33.88892,-118.394828,CA,1983-04-13T12:00:00,RG2,Manhattan Beach,239,294
en-US,Los Angeles,Los Angeles,"3535 S La Cienega Blvd, Los Angeles, CA 90016-4407",NWC La Cienega Blvd & Rodeo Rd,34.022698,-118.373287,CA,2000-10-04T12:00:00,ESF,Los Angeles,204,294
en-US,Culver City,Los Angeles,"6000 Sepulveda Blvd, Culver City, CA 90230-6423",SEC Hwy 90 & Sepulveda Blvd,33.9853,-118.394695,CA,2009-10-07T12:00:00,RG2,Culver City South,239,294
en-US,West Hollywood,Los Angeles,"7100 Santa Monica Blvd, STE 201, West Hollywood, CA 90046-5896",SWC LaBrea Ave & Santa Monica Blvd,34.090343,-118.344638,CA,2004-03-03T12:00:00,RG2,West Hollywood,204,294
en-US,Culver City,Los Angeles,"10820 Jefferson Blvd, Culver City, CA 90230-4935",SEC Jefferson Blvd & Cota St,33.999135,-118.394038,CA,1984-10-10T12:00:00,RG2,Culver City,239,294
en-US,Los Angeles,Los Angeles,"8480 Beverly Blvd Ste 1A, Los Angeles, CA 90048-3414",NEC 3rd & La Cienega,34.0743,-118.3755,CA,2013-03-06T12:00:00,RG2,LA Beverly,204,294
en-US,Burbank,Los Angeles,"1800 W Empire Ave, Burbank, CA 91504-3403",SWC Empire Ave & Victory Place,34.18962,-118.330331,CA,2001-10-10T12:00:00,RG2,Burbank,236,294
en-US,Burbank,Los Angeles,"1033 N Hollywood Way, Burbank, CA 91505-2540",NWC Hollywood Ave and Magnolia Blvd,34.16904,-118.348002,CA,2018-04-04T12:00:00,,LA Burbank West,236,294
en-US,North Hollywood,Los Angeles,"11051 Victory Blvd, North Hollywood, CA 91606-3719",NWC Victory Blvd & Vineland,34.18816,-118.371645,CA,1987-07-22T12:00:00,RG2,North Hollywood,219,294
en-US,Los Angeles,Los Angeles,"10861 Weyburn Ave, Los Angeles, CA 90024-2957",NEC Weyburn Ave & Glendon Ave,34.063027,-118.444199,CA,2012-07-25T12:00:00,RG2,LA Westwood,204,294
en-US,Pacoima,Los Angeles,"9725 Laurel Canyon Blvd, Pacoima, CA 91331-4100",SWC Laurel Canyon & Osborne,34.245735,-118.419269,CA,1983-04-13T12:00:00,RG2,Pacoima,219,294
en-US,Van Nuys,Los Angeles,"5711 Sepulveda Blvd, Van Nuys, CA 91411-2918",SWC Sepulveda Blvd & Hatteras St,34.175234,-118.466515,CA,2001-07-25T12:00:00,RG2,Van Nuys,209,294
en-US,Van Nuys,Los Angeles,"14920 Raymer St, Van Nuys, CA 91405-1146",SWC Kester Ave & Raymer St,34.212687,-118.46022,CA,2000-10-04T12:00:00,RG2,Van Nuys North,209,294
en-US,Mission Hills,Los Angeles,"10340 N Sepulveda Blvd, Mission Hills, CA 91345-2422",Sepulveda Blvd and Devonshire St,34.257728,-118.46666,CA,2017-10-18T12:00:00,,Mission Hills CA,219,294
en-US,Northridge,Los Angeles,"8999 Balboa Blvd, Northridge, CA 91325-2608",SWC Balboa Blvd & Nordhoff St,34.234794,-118.503001,CA,2005-10-05T12:00:00,RG2,Sherwood Forest,209,294
en-US,Lodi,San Joaquin,"2355 W Kettleman Ln, Lodi, CA 95242-4120",NEC Kettleman & Sacramento Rd,38.117156,-121.303786,CA,1994-03-09T12:00:00,RG2,Lodi,246,295
en-US,Stockton,San Joaquin,"10424 Trinity Parkway, Stockton, CA 95219-7225",SWC I-5 & Eight Mile Rd,38.05213,-121.372721,CA,2004-03-03T12:00:00,RG2,Stockton North,246,295
en-US,Stockton,San Joaquin,"4707 Pacific Ave, Stockton, CA 95207-6301",NEC Pacific Ave & March Ln,37.991634,-121.314598,CA,1987-10-07T12:00:00,RG2,Stockton,246,295
en-US,Elk Grove,Sacramento,"7505 Laguna Blvd, Elk Grove, CA 95758-5061",NEC Laguna Blvd & Bruceville Rd,38.426289,-121.415097,CA,1996-07-24T12:00:00,RG2,Elk Grove,246,295
en-US,Sacramento,Sacramento,"8101 Cosumnes River Blvd, Sacramento, CA 95823-5415",NWC Hwy 99 & Calvine Rd,38.458625,-121.41386,CA,2004-03-03T12:00:00,RG2,Sacramento SW,246,295
en-US,Sacramento,Sacramento,"6507 4th Ave, Sacramento, CA 95817-2611",SEC US Hwy 50 & 65th Street Expwy,38.549206,-121.426579,CA,2010-10-06T12:00:00,RG2,Sacramento East,246,295
en-US,Rancho Cordova,Sacramento,"10881 Olson Dr, Rancho Cordova, CA 95670-5646",SEC Folsom Blvd & Zinfandel Dr,38.596053,-121.28568,CA,2009-10-07T12:00:00,RG2,Rancho Cordova,246,295
en-US,Sacramento,Sacramento,"2505 Riverside Blvd, Sacramento, CA 95818-2234",SEC Riverside & Broadway,38.562221,-121.49751,CA,1987-10-07T12:00:00,RG2,Sacramento Riverside,246,295
en-US,West Sacramento,Yolo,"2005 Town Center Plz, West Sacramento, CA 95691-4957",SEC Jefferson Blvd & Lk Washington Blvd,38.549896,-121.536702,CA,2007-03-07T12:00:00,RG2,West Sacramento,246,295
en-US,Sacramento,Sacramento,"1919 Fulton Ave, Sacramento, CA 95825-1905",NWC Fulton & Alta-Arden Expwy,38.600567,-121.403401,CA,1987-10-07T12:00:00,RG2,Sacramento Arden,220,295
en-US,Lathrop,San Joaquin,"16858 Golden Valley Pkwy, Lathrop, CA 95330-8535",SWC I-5 & River Islands Pkwy,37.808538,-121.299057,CA,2008-07-23T12:00:00,RG2,Lathrop,218,295
en-US,Manteca,San Joaquin,"280 Spreckels Ave, Manteca, CA 95336-6005",SWC CA 99 & Yosemite Ave,37.795029,-121.197283,CA,2003-03-05T12:00:00,RG2,Manteca,218,295
en-US,Antioch,Contra Costa,"5769 Lone Tree Way, Antioch, CA 94531-8587",NEC Lone Tree Way & Slatten Ranch Rd,37.963999,-121.737686,CA,2003-10-08T12:00:00,RG2,Antioch Slatten Ranch,247,295
en-US,Sacramento,Sacramento,"5001 Madison Ave, Sacramento, CA 95841-2604",NWC Madison & Auburn Blvd,38.66161,-121.349226,CA,1987-10-07T12:00:00,RG2,Sacramento Madison,220,295
en-US,Citrus Heights,Sacramento,"5837 Sunrise Blvd, Citrus Heights, CA 95610-6866",SWC Greenback Ln & Sunrise Blvd,38.673209,-121.274088,CA,1998-03-04T12:00:00,RG2,Birdcage-Citrus Heights,220,295
en-US,Sacramento,Sacramento,"3601 N Freeway Blvd, Sacramento, CA 95834-2902",NEC I-80 & Truxel Rd,38.640887,-121.499327,CA,2006-03-01T12:00:00,RG2,Sacramento Natomas,208,295
en-US,El Dorado Hills,El Dorado,"4400 Town Center Blvd, El Dorado Hills, CA 95762-7130",SEC Hwy 50 & Latrobe Rd,38.650214,-121.06288,CA,2007-10-10T12:00:00,RG2,El Dorado Hills,220,295
en-US,Folsom,Sacramento,"430 Blue Ravine Rd, Folsom, CA 95630-3402",NWC E Bidwell & Blue Ravine,38.671608,-121.153284,CA,1997-10-08T12:00:00,RG2,Folsom,220,295
en-US,Davis,Yolo,"4601 2nd St, Davis, CA 95618-9446",NWC 2nd St & Mace Blvd,38.554434,-121.69929,CA,2009-10-07T12:00:00,RG2,Davis,208,295
en-US,Tracy,San Joaquin,"2800 Naglee Rd, Tracy, CA 95304-7307",NWC I-205 & Grant Line Rd,37.75779,-121.458451,CA,1995-10-04T12:00:00,RG2,Tracy,218,295
en-US,Pittsburg,Contra Costa,"4301 Century Blvd, Pittsburg, CA 94565-7101",NWC Century Blvd & Sommersville,38.007704,-121.840624,CA,1988-02-17T12:00:00,RG2,Pittsburg,247,295
en-US,Roseville,Placer,"1925 Douglas Blvd, Roseville, CA 95661-3834",NWC Douglas & Rocky Ridge Dr,38.745763,-121.254606,CA,1988-02-17T12:00:00,RG2,Roseville,220,295
en-US,Modesto,Stanislaus,"3900 Sisk Rd, Modesto, CA 95356-3215",NEC Rte 99 & Vintage,37.69382,-121.063121,CA,1994-10-05T12:00:00,RG2,Modesto NW,218,295
en-US,Vacaville,Solano,"3000 Harbison Dr, Vacaville, CA 95687-3909",SEC I-80 & Nut Tree Rd,38.361305,-121.961849,CA,1992-10-07T12:00:00,RG2,Vacaville,247,295
en-US,Riverbank,Stanislaus,"2425 Claribel Rd, Riverbank, CA 95367-9456",NEC Claribel Rd & Oakdale Rd,37.713358,-120.953282,CA,2005-10-05T12:00:00,RG2,Riverbank,218,295
en-US,Roseville,Placer,"10451 Fairway Dr, Roseville, CA 95678-1987",NWC Hwy 65 & Pleasant Grove Blvd,38.791131,-121.289567,CA,2002-10-09T12:00:00,RG2,Roseville North,208,295
en-US,Modesto,Stanislaus,"3405 Mchenry Ave, Modesto, CA 95350-1445",SWC Standiford & McHenery,37.687154,-120.995583,CA,1987-10-07T12:00:00,RG2,Modesto,218,295
en-US,Woodland,Yolo,"2185 Bronze Star Dr, Woodland, CA 95776-5406",SEC I-5 & Road 102,38.672209,-121.725313,CA,2008-07-23T12:00:00,RG2,Woodland,208,295
en-US,Rocklin,Placer,"5104 Commons Dr, Rocklin, CA 95677",SWC of Sierra College Boulevard & Granite Drive,38.804951,-121.208694,CA,2014-03-05T12:00:00,RG2,Rocklin,208,295
en-US,Fairfield,Solano,"2059 Cadenasso Dr, Fairfield, CA 94533-6806",SWC Cadenasso St & Beck Ave,38.246702,-122.068212,CA,1991-10-09T12:00:00,RG2,Fairfield,247,295
en-US,Livermore,Alameda,"4300 Las Positas Rd, Livermore, CA 94551-9641",SWC 1st St & I-580,37.700855,-121.746435,CA,1993-07-21T12:00:00,RG2,Livermore,237,290
en-US,Lincoln,Placer,"950 Groveland Ln, Lincoln, CA 95648-8041",SEC Ferrari Ranch Rd & Joiner Pkwy,38.870468,-121.30378,CA,2006-10-04T12:00:00,RG2,Lincoln,208,295
en-US,Pleasant Hill,Contra Costa,"560 Contra Costa Blvd, Pleasant Hill, CA 94523-1216",NWC Contra Costa Blvd & Chilpancingo,37.977361,-122.066756,CA,1987-10-28T12:00:00,RG2,Pleasant Hill,247,295
en-US,Dublin,Alameda,"2800 Dublin Blvd, Dublin, CA 94568-4589",NWC I-580 and Fallon Road,37.703228,-121.853195,CA,2011-10-05T12:00:00,RG2,Dublin East,237,290
en-US,Walnut Creek,Contra Costa,"1871 N Main St, Walnut Creek, CA 94596-4106",NWC Main St & Lacassie Ave,37.905131,-122.064277,CA,1999-10-06T12:00:00,RG2,Walnut Creek,211,290
en-US,San Ramon,Contra Costa,"2610 Bishop Dr, San Ramon, CA 94583-2338",NEC I-680 & Canyon Rd,37.761771,-121.964153,CA,1995-03-08T12:00:00,RG2,San Ramon,237,290
en-US,Dublin,Alameda,"7200 Amador Plaza Rd, Dublin, CA 94568-2320",NWC Armador Plz & Armador Valley,37.706588,-121.931028,CA,1987-10-28T12:00:00,RG2,Dublin,237,290
en-US,Auburn,Placer,"2700 Bell Rd, Auburn, CA 95603-2508",NEC Hwy 49 & Bell Rd,38.943459,-121.095909,CA,2000-10-04T12:00:00,RG2,Auburn,208,295
en-US,Vallejo,Solano,"904 Admiral Callaghan Lane, Vallejo, CA 94591-3680",NEC Admrl Callaghan Lane & Old Turner,38.132407,-122.222603,CA,1987-10-28T12:00:00,RG2,Vallejo,247,295
en-US,Turlock,Stanislaus,"3000 Countryside Dr, Turlock, CA 95380-8402",SEC Hwy 99 & Monte Vista Ave,37.520868,-120.879081,CA,2000-10-04T12:00:00,RG2,Turlock,218,295
en-US,Napa,Napa,"205 Soscol Ave, Napa, CA 94559-4007",NWC Hwy 221 & Imola Ave,38.282734,-122.277002,CA,1996-07-24T12:00:00,RG2,Napa,247,295
